[
  {
    "name": "(대행청)공주지청",
    "lat": 36.4541443056463,
    "lng": 127.120465394431,
    "address": "충청남도 공주시 반죽동 332"
  },
  {
    "name": "(대행청)논산지청",
    "lat": 36.154855726027,
    "lng": 127.012268871685,
    "address": "충청남도 논산시 강경읍 대흥리 46-1"
  },
  {
    "name": "(대행청)밀양지청",
    "lat": 35.5014547471183,
    "lng": 128.738918317807,
    "address": "경상남도 밀양시 내이동 428"
  },
  {
    "name": "(대행청)상주지청",
    "lat": 36.4275558474236,
    "lng": 128.153664032782,
    "address": "경상북도 상주시 만산동 652-2"
  },
  {
    "name": "(대행청)영덕지청",
    "lat": 36.4208590339317,
    "lng": 129.365691019276,
    "address": "경상북도 영덕군 영덕읍 화개리 265"
  },
  {
    "name": "(대행청)영월지청",
    "lat": 37.1926601790992,
    "lng": 128.498014538203,
    "address": "강원도 영월군 영월읍 영흥8리 876"
  },
  {
    "name": "(대행청)의성지청",
    "lat": 36.3698717602329,
    "lng": 128.709435487064,
    "address": "경상북도 의성군 의성읍 중리리 748"
  },
  {
    "name": "(대행청)장흥지청",
    "lat": 34.6788225771964,
    "lng": 126.896312065015,
    "address": "전라남도 장흥군 장흥읍 읍성로 121-1"
  },
  {
    "name": "(대행청)정읍지청",
    "lat": 35.5857100229482,
    "lng": 126.861236651085,
    "address": "전라북도 정읍시 수성동 수성6로 29"
  },
  {
    "name": "(대행청)테스트",
    "lat": 37.4277995788349,
    "lng": 126.984816041266,
    "address": "경기도 과천시 관문로 47 (중앙동, 법무부) 5층"
  },
  {
    "name": "(대행청)해남지청",
    "lat": 34.5758719867043,
    "lng": 126.590747961831,
    "address": "전라남도 해남군 해남읍 구교리 390"
  },
  {
    "name": "3.1합동법률사무소",
    "lat": 35.1900107286083,
    "lng": 129.073217613341,
    "address": "부산광역시 연제구 거제동 1498-2 위너스빌딩 3층"
  },
  {
    "name": "강남제일합동법률사무소",
    "lat": 37.4933468561171,
    "lng": 127.011190469205,
    "address": "서울특별시 서초구 서초동 1716-2 부림빌딩 301호"
  },
  {
    "name": "강남종합법무법인",
    "lat": 37.4841524346992,
    "lng": 126.981632132981,
    "address": "서울특별시 동작구 동작대로 85 (사당동) 7층 (사당동, 우석빌딩)"
  },
  {
    "name": "강북합동법률사무소",
    "lat": 37.5654481829136,
    "lng": 126.992522202618,
    "address": "서울특별시 중구 을지로3가 296-2 상립빌딩 601호"
  },
  {
    "name": "경기제일합동법률사무소",
    "lat": 37.2721789355363,
    "lng": 127.052924570592,
    "address": "경기도 수원시 영통구 매탄동 1195-3 남부빌딩 3층"
  },
  {
    "name": "경남법무법인",
    "lat": 35.2248520963727,
    "lng": 128.698544550662,
    "address": "경상남도 창원시 사파동 124-1"
  },
  {
    "name": "경북법무법인",
    "lat": 36.565411446024,
    "lng": 128.733789899526,
    "address": "경상북도 안동시 동부동 75-6"
  },
  {
    "name": "경북합동법률사무소",
    "lat": 35.8689714564939,
    "lng": 128.59979483518,
    "address": "대구광역시 중구 공평동 70"
  },
  {
    "name": "경인법무법인",
    "lat": 37.444844062098,
    "lng": 126.670058527405,
    "address": "인천광역시 남구 학익2동 25-12 석목법조빌딩2층"
  },
  {
    "name": "경희법무법인",
    "lat": 37.2346525186982,
    "lng": 127.200277796902,
    "address": "경기도 용인시 처인구 김량장동 334-2 거성빌딩 401, 402"
  },
  {
    "name": "공증인가경향합동법률사무소",
    "lat": 37.5627658956023,
    "lng": 126.982216802182,
    "address": "서울특별시 중구 남대문로 64 (명동2가) 201호 (명동2가, 금성빌딩)"
  },
  {
    "name": "공증인가고려합동법률사무소",
    "lat": 37.5445596659316,
    "lng": 126.952674957731,
    "address": "서울특별시 마포구 공덕동 256-13 제일빙딩"
  },
  {
    "name": "공증인가광일합동법률사무소",
    "lat": 35.1497836037197,
    "lng": 126.91701213745,
    "address": "광주광역시 동구 금남로3가 3-7 금남빌딩 2층"
  },
  {
    "name": "공증인가광주제일합동법률사무소",
    "lat": 35.1516608192015,
    "lng": 126.916941420707,
    "address": "광주광역시 동구 대인동 156 추선장학회관 3층"
  },
  {
    "name": "공증인가군산합동법률사무소",
    "lat": 35.967752198251,
    "lng": 126.74058164021,
    "address": "전라북도 군산시 조촌동 884 동원빌딩 5층"
  },
  {
    "name": "공증인가남서울합동법률사무소",
    "lat": 37.5268052808985,
    "lng": 126.896524234504,
    "address": "서울특별시 영등포구 당산동3가 386-1 서림빌딩 5층"
  },
  {
    "name": "공증인가대구고려합동법률사무소",
    "lat": 35.8630080313232,
    "lng": 128.626388468939,
    "address": "대구광역시 수성구 동대구로 365 (범어동) 수강빌딩 202호"
  },
  {
    "name": "공증인가대전합동",
    "lat": 36.3532996321856,
    "lng": 127.389539811866,
    "address": "대전광역시 서구 둔산동 1391 서림빌딩 3층"
  },
  {
    "name": "공증인가동남합동법률사무소",
    "lat": 37.5079048695184,
    "lng": 127.061344352436,
    "address": "서울특별시 강남구 테헤란로 522 (대치동, 홍우빌딩) 7층 (대치동, 홍우빌딩)"
  },
  {
    "name": "공증인가동대구합동법률사무소",
    "lat": 35.8597674519215,
    "lng": 128.627279361369,
    "address": "대구광역시 수성구 범어동 177-10 대구일보건물 5층"
  },
  {
    "name": "공증인가동방합동법률사무소",
    "lat": 35.8649815859301,
    "lng": 128.627714550068,
    "address": "대구광역시 수성구 범어동 45-5 301호"
  },
  {
    "name": "공증인가목포합동법률사무소",
    "lat": 34.8118267890387,
    "lng": 126.396290532039,
    "address": "전라남도 목포시 용해동 965-5"
  },
  {
    "name": "공증인가부산제일합동법률사무소",
    "lat": 35.1918287494147,
    "lng": 129.074704403306,
    "address": "부산광역시 연제구 거제동 1487-1 청림빌딩 207"
  },
  {
    "name": "공증인가북부합동법률사무소",
    "lat": 37.6759154915741,
    "lng": 127.048258178897,
    "address": "서울특별시 도봉구 도봉동 631-3 거봉빌딩 1층 5, 6호"
  },
  {
    "name": "공증인가서일합동법률사무소",
    "lat": 37.5049703247826,
    "lng": 127.049145898783,
    "address": "서울특별시 강남구 테헤란로 401 (삼성동, 남경센타) 7층 2호 (삼성동, 남경센타빌딩)"
  },
  {
    "name": "공증인가성광합동법률사무소",
    "lat": 35.8620472557286,
    "lng": 128.627710885485,
    "address": "대구광역시 수성구 범어동 174-1 성광빌딩 4, 5층"
  },
  {
    "name": "공증인가송파합동법률사무소",
    "lat": 37.5052665438398,
    "lng": 127.106298010481,
    "address": "서울특별시 송파구 백제고분로365 태문빌딩 8층"
  },
  {
    "name": "공증인가여의도합동법률사무소",
    "lat": 37.5207908297398,
    "lng": 126.926911965929,
    "address": "서울특별시 영등포구 국제금융로6길 33, 706호"
  },
  {
    "name": "공증인가전주합동법률사무소",
    "lat": 35.8227449789954,
    "lng": 127.143148698236,
    "address": "전라북도 전주시 완산구 대동로 67 (태평동, 상진신협) 4층"
  },
  {
    "name": "공증인가제주합동법률사무소",
    "lat": 33.4932075420489,
    "lng": 126.521630131483,
    "address": "제주특별자치도 제주시 이도2동 1026 4층"
  },
  {
    "name": "공증인가주안합동법률사무소",
    "lat": 37.4408178148922,
    "lng": 126.670062194082,
    "address": "인천광역시 남구 학익동 239-13 홍문빌딩 6층"
  },
  {
    "name": "공증인가춘천합동법률사무소",
    "lat": 37.8667010433163,
    "lng": 127.732887571544,
    "address": "강원도 춘천시 효자2동 709 대양빌딩 4층"
  },
  {
    "name": "공증인가팔공합동법률사무소",
    "lat": 35.8725709864485,
    "lng": 128.603591759542,
    "address": "대구광역시 중구 동인동1가 270-1"
  },
  {
    "name": "공증인가평화합동법률사무소",
    "lat": 37.5658186224782,
    "lng": 126.986805213208,
    "address": "서울특별시 중구 을지로 80-1 (을지로2가, 보승빌딩) 보승빌딩 3, 4층"
  },
  {
    "name": "공증인김양진사무소",
    "lat": 34.9593114816139,
    "lng": 127.521926429532,
    "address": "전라남도 순천시 조례동 522"
  },
  {
    "name": "관악법무법인",
    "lat": 37.4813498315486,
    "lng": 126.953394352118,
    "address": "서울특별시 관악구 봉천동 858-7 관악빌딩 3층"
  },
  {
    "name": "광주합동법률사무소",
    "lat": 35.1493525408508,
    "lng": 126.917228768717,
    "address": "광주광역시 동구 금남로3가 가톨릭센터 307호"
  },
  {
    "name": "광화문법무법인",
    "lat": 37.5704876038354,
    "lng": 126.974761002545,
    "address": "서울특별시 종로구 새문안로 91 (신문로1가, 고려빌딩) 613호"
  },
  {
    "name": "국제합동법률사무소",
    "lat": 37.5653626171105,
    "lng": 126.979214090158,
    "address": "서울특별시 중구 을지로1가 192-11 재능빌딩 14층"
  },
  {
    "name": "남부종합법무법인",
    "lat": 37.5226052741389,
    "lng": 126.863540232636,
    "address": "서울특별시 양천구 신월로 383 (신정동, 법조타운) 2층 201호"
  },
  {
    "name": "내외법무법인",
    "lat": 35.2242723192172,
    "lng": 128.698950798759,
    "address": "경상남도 창원시 사파동 124-6"
  },
  {
    "name": "대원종합법무법인",
    "lat": 36.9821472829382,
    "lng": 127.926003867879,
    "address": "충청북도 충주시 계명대로 104, 2층(교현동)"
  },
  {
    "name": "대전종합법무법인",
    "lat": 36.3532872245821,
    "lng": 127.389005438972,
    "address": "대전광역시 서구 둔산동 1392"
  },
  {
    "name": "대한법무법인",
    "lat": 37.4796728844738,
    "lng": 126.982192080031,
    "address": "서울특별시 서초구 동작대로 36 (방배동, 대광빌딩) 3층"
  },
  {
    "name": "대행청(부산서부지청)",
    "lat": 35.0973684434072,
    "lng": 128.90854565617,
    "address": "부산광역시 강서구 명지국제7로 67 (명지동) 부산서부지청"
  },
  {
    "name": "동방종합법무법인",
    "lat": 37.5613121607321,
    "lng": 126.992552722483,
    "address": "서울특별시 중구 퇴계로 187 (필동1가, 국제빌딩) 3층 (필동, 국제빌동)"
  },
  {
    "name": "동서법무법인",
    "lat": 35.223519367621,
    "lng": 128.701528542375,
    "address": "경상남도 창원시 사파동 78 성은빌딩"
  },
  {
    "name": "동수원종합법무법인",
    "lat": 37.2753882035552,
    "lng": 127.05058471725,
    "address": "경기도 수원시 영통구 원천동 83-23 승전빌딩 4층"
  },
  {
    "name": "동아합동법률사무소",
    "lat": 37.4946718731936,
    "lng": 127.015250748168,
    "address": "서울특별시 서초구 서초동 1692-6 동아합동빌딩 5,6층"
  },
  {
    "name": "동화법무법인",
    "lat": 37.5015434614787,
    "lng": 127.025366637091,
    "address": "서울특별시 서초구 강남대로 439 (서초동, 유화빌딩) 5층"
  },
  {
    "name": "매일합동법률사무소",
    "lat": 35.1903913579301,
    "lng": 129.074612631638,
    "address": "부산광역시 연제구 거제1동 1493-3 보은빌딩 203호"
  },
  {
    "name": "모란법무법인",
    "lat": 37.4303350462739,
    "lng": 127.128880532112,
    "address": "경기도 성남시 중원구 성남동 4182 한성빌딩 3층"
  },
  {
    "name": "무등합동법률사무소",
    "lat": 35.1496567938655,
    "lng": 126.919704929461,
    "address": "광주광역시 동구 대의동 13-2"
  },
  {
    "name": "반도합동법률사무소",
    "lat": 37.4882336166947,
    "lng": 126.982660087873,
    "address": "서울특별시 서초구 방배동 1808 안석빌딩 3층"
  },
  {
    "name": "배영철사무소",
    "lat": 37.4921225842877,
    "lng": 126.723594062234,
    "address": "인천광역시 부평구 부평대로 6 (부평동, 대신스카이프라자) 3층"
  },
  {
    "name": "법무법인(유한)로고스",
    "lat": 37.5102336492314,
    "lng": 127.058597240146,
    "address": "서울특별시 강남구 테헤란로87길 36 (삼성동, 도심공항타워) 14층"
  },
  {
    "name": "법무법인(유한)영진",
    "lat": 37.5000818732753,
    "lng": 127.032937953168,
    "address": "서울특별시 강남구 테헤란로 131 (역삼동, 한국지식재산센터) 12층"
  },
  {
    "name": "법무법인(유한)우일",
    "lat": 37.4950009216382,
    "lng": 127.013778147123,
    "address": "서울특별시 서초구 서초중앙로 148 (서초동, 희성빌딩) 10층"
  },
  {
    "name": "법무법인(유한)원",
    "lat": 37.4906156768866,
    "lng": 127.031763351903,
    "address": "서울특별시 강남구 강남대로 308 (역삼동, 랜드마크타워) 15층"
  },
  {
    "name": "법무법인(유한)율촌",
    "lat": 37.5075910839105,
    "lng": 127.060579419429,
    "address": "서울특별시 강남구 테헤란로 518 (대치동, 섬유센터빌딩) 13층"
  },
  {
    "name": "법무법인(유한)정진",
    "lat": 37.4965621966412,
    "lng": 127.024761420493,
    "address": "서울특별시 서초구 서초대로 396 (서초동, 강남빌딩) 20층"
  },
  {
    "name": "법무법인(유한)정평",
    "lat": 37.4919441934041,
    "lng": 127.014296498142,
    "address": "서울특별시 서초구 서초동 1656-2 일광빌딩 7층"
  },
  {
    "name": "법무법인(유한)주원",
    "lat": 37.5170777485054,
    "lng": 127.033430008152,
    "address": "서울특별시 강남구 언주로 711 (논현동, 법무법인주원) 601호"
  },
  {
    "name": "법무법인(유한)태평양",
    "lat": 37.500480421745,
    "lng": 127.032491647568,
    "address": "서울특별시 강남구 역삼동 647-15 한국타이어빌딩"
  },
  {
    "name": "법무법인(유한)한결",
    "lat": 37.5709578373114,
    "lng": 126.977928770123,
    "address": "서울특별시 종로구 종로 1 (종로1가, 교보생명) 9층"
  },
  {
    "name": "법무법인(유한)한길",
    "lat": 37.5096322564759,
    "lng": 127.059443354483,
    "address": "서울특별시 강남구 테헤란로87길 22  한국도심공항터미널빌딩 617"
  },
  {
    "name": "법무법인(유한)한별",
    "lat": 37.4987846719974,
    "lng": 127.031703595662,
    "address": "서울특별시 강남구 테헤란로 124 (역삼동, 풍림빌딩) 703호"
  },
  {
    "name": "법무법인(유한)화우",
    "lat": 37.5131101543222,
    "lng": 127.059758068383,
    "address": "서울특별시 강남구 영동대로 517 (삼성동, 아셈타워) 22층"
  },
  {
    "name": "법무법인21세기종합법률사무소",
    "lat": 35.1510549395247,
    "lng": 126.931683786582,
    "address": "광주광역시 동구 지산동 714-20 (1층, 5층)"
  },
  {
    "name": "법무법인가야종합법률사무소",
    "lat": 35.8620911091891,
    "lng": 128.626189729143,
    "address": "대구광역시 수성구 범어동 33-16번지"
  },
  {
    "name": "법무법인가인",
    "lat": 37.6532166592184,
    "lng": 126.776008722988,
    "address": "경기도 고양시 일산동구 장항동 891-2 성암빌딩 101, 301"
  },
  {
    "name": "법무법인강서",
    "lat": 37.522419850925,
    "lng": 126.862455377874,
    "address": "서울특별시 양천구 신월로 373(신정동) 동남빌딩 2층"
  },
  {
    "name": "법무법인겨레",
    "lat": 37.4419010378634,
    "lng": 126.667499759089,
    "address": "인천광역시 남구 학익동 251-5  대흥법조빌딩"
  },
  {
    "name": "법무법인경복",
    "lat": 37.4923395374076,
    "lng": 127.011112521206,
    "address": "서울특별시 서초구 반포대로30길 47 (서초동, 행림빌딩) 5층, 102호 (서초동, 행림빌딩)"
  },
  {
    "name": "법무법인경북삼일",
    "lat": 36.1188033204327,
    "lng": 128.342465091757,
    "address": "경상북도 구미시 송정동 34-3"
  },
  {
    "name": "법무법인경원",
    "lat": 37.494715036802,
    "lng": 127.013738176781,
    "address": "서울특별시 서초구 서초중앙로 146 (서초동, 경원빌딩) 702호 (서초동, 경원빌딩)"
  },
  {
    "name": "법무법인계양종합",
    "lat": 37.5293723109566,
    "lng": 126.72285162884,
    "address": "인천광역시 계양구 작전동 866-2번지 3층"
  },
  {
    "name": "법무법인공평",
    "lat": 37.3957217590321,
    "lng": 126.963154558117,
    "address": "경기도 안양시 동안구 관양동 1597-1 한솔센트럴파크3차 2층 201호"
  },
  {
    "name": "법무법인광명",
    "lat": 37.4772841925901,
    "lng": 126.86286916955,
    "address": "경기도 광명시 오리로 902 (철산동, 금산빌딩) 502호"
  },
  {
    "name": "법무법인광장",
    "lat": 37.5630641743761,
    "lng": 126.981365694181,
    "address": "서울특별시 중구 남대문로 63 (소공동, 한진빌딩) 본관 20층"
  },
  {
    "name": "법무법인광주로펌",
    "lat": 35.1567410475435,
    "lng": 126.853543235733,
    "address": "광주광역시 서구 치평동 1208 골든빌오피스텔 102호"
  },
  {
    "name": "법무법인구덕",
    "lat": 35.190783108196,
    "lng": 129.074017298432,
    "address": "부산광역시 연제구 거제동 1491-2 성신프라이언빌딩 3,4층"
  },
  {
    "name": "법무법인국민",
    "lat": 37.6188283240683,
    "lng": 127.075629719794,
    "address": "서울특별시 노원구 공릉동 617-7 대화빌딩 2층"
  },
  {
    "name": "법무법인국제",
    "lat": 35.1913709471651,
    "lng": 129.074232034159,
    "address": "부산광역시 연제구 거제1동 1490-1 부산법조타운빌딩 2층 205호"
  },
  {
    "name": "법무법인규로",
    "lat": 35.2233054843811,
    "lng": 128.701055887823,
    "address": "경상남도 창원시 사파동 82 대성빌딩 3층"
  },
  {
    "name": "법무법인금강",
    "lat": 35.2442570138731,
    "lng": 128.868549259328,
    "address": "경상남도 김해시 내동 1070-7"
  },
  {
    "name": "법무법인길도",
    "lat": 37.4941705262679,
    "lng": 127.012398634608,
    "address": "서울특별시 서초구 법원로2길 15 (서초동, 길도빌딩) 401호"
  },
  {
    "name": "법무법인김해앤세계",
    "lat": 35.2281460134804,
    "lng": 128.886545308024,
    "address": "경상남도 김해시 부원동 620-3 신협빌딩 5층"
  },
  {
    "name": "법무법인나라",
    "lat": 37.3955966736413,
    "lng": 126.962791654077,
    "address": "경기도 안양시 동안구 관양동 1597 평촌 한양월드빌 301호"
  },
  {
    "name": "법무법인남강",
    "lat": 37.4861753549051,
    "lng": 126.986859146534,
    "address": "서울특별시 서초구 서초대로41길 승소빌딩 2층"
  },
  {
    "name": "법무법인남도종합법률사무소",
    "lat": 34.9712420575561,
    "lng": 127.521409462728,
    "address": "전라남도 순천시 조례동 1732-4 웅인빌딩 3,4층"
  },
  {
    "name": "법무법인남명",
    "lat": 37.4929772315436,
    "lng": 127.012407370593,
    "address": "서울특별시 서초구 서초동 1572-7 태양빌딩 6층"
  },
  {
    "name": "법무법인남부제일",
    "lat": 37.5193639121001,
    "lng": 126.904003292703,
    "address": "서울특별시 영등포구 영신로34길 30 영등포동4가, 2층"
  },
  {
    "name": "법무법인내일",
    "lat": 36.3532927954229,
    "lng": 127.388206896598,
    "address": "대전광역시 서구 둔산동 1395민석타워3층"
  },
  {
    "name": "법무법인네모",
    "lat": 37.5653821677485,
    "lng": 126.979208538495,
    "address": "서울특별시 중구 을지로6가 기승개발빌딩 10층"
  },
  {
    "name": "법무법인넥서스",
    "lat": 37.5228984836544,
    "lng": 126.924100358571,
    "address": "서울특별시 영등포구 여의도동 26의4교보증권빌딩"
  },
  {
    "name": "법무법인누리",
    "lat": 37.3957217590321,
    "lng": 126.963154558117,
    "address": "경기도 안양시 동안구 관양동 1597-1 한솔센트럴파크 3차 210호 "
  },
  {
    "name": "법무법인다비다",
    "lat": 37.4909965079447,
    "lng": 126.756429866188,
    "address": "경기도 부천시 원미구 상동 448-1 뉴법조타운 103호"
  },
  {
    "name": "법무법인다산",
    "lat": 37.2751713390965,
    "lng": 127.050547363846,
    "address": "경기도 수원시 영통구 원천동 84-1 전원빌딩 제301호, 제202호"
  },
  {
    "name": "법무법인다온",
    "lat": 37.4957532868681,
    "lng": 127.014329339857,
    "address": "서울특별시 서초구 서초동 1698-13 동우빌딩 2, 3 층"
  },
  {
    "name": "법무법인다우",
    "lat": 37.5226793150208,
    "lng": 126.925017562267,
    "address": "서울특별시 영등포구 여의도동 26-5 대오빌딩 5층"
  },
  {
    "name": "법무법인다윈",
    "lat": 37.7541573144582,
    "lng": 127.033565101103,
    "address": "경기도 의정부시 가능동 365-16"
  },
  {
    "name": "법무법인단원",
    "lat": 37.3111348328653,
    "lng": 126.827481503916,
    "address": "경기도 안산시 단원구 고잔동 710 중앙법조빌딩 102호"
  },
  {
    "name": "법무법인대경종합법률사무소",
    "lat": 35.8643219137359,
    "lng": 128.626307048726,
    "address": "대구광역시 수성구 범어동 13-4 태윤빌딩 3,4 층"
  },
  {
    "name": "법무법인대구",
    "lat": 35.8624178435798,
    "lng": 128.626284303424,
    "address": "대구광역시 수성구 동대구로 357 (범어동) 범어동"
  },
  {
    "name": "법무법인대성",
    "lat": 37.5020858941495,
    "lng": 127.026069579038,
    "address": "서울특별시 강남구 강남대로 442 (역삼동, 서울역삼동우체국) 흥국생명빌딩 5층"
  },
  {
    "name": "법무법인대승",
    "lat": 37.7878215026756,
    "lng": 126.739347891835,
    "address": "경기도 파주시 금촌동 952-1,2 경기빌딩 2층"
  },
  {
    "name": "법무법인대양",
    "lat": 37.4933339258066,
    "lng": 127.118750374759,
    "address": "서울특별시 송파구 가락동 99-3 제일빌딩 912-914"
  },
  {
    "name": "법무법인대원",
    "lat": 37.4425968475089,
    "lng": 126.665728301403,
    "address": "인천광역시 남구 학익동 270-30 중앙빌딩 6층"
  },
  {
    "name": "법무법인대유",
    "lat": 37.4943456632732,
    "lng": 127.014900469688,
    "address": "서울특별시 서초구 서초동 1692-3 재영빌딩 3층"
  },
  {
    "name": "법무법인대일",
    "lat": 37.5237089214335,
    "lng": 126.926355596889,
    "address": "서울특별시 영등포구 여의도동 25-4 신송빌딩 301호"
  },
  {
    "name": "법무법인대전제일",
    "lat": 36.3532974113895,
    "lng": 127.389861546124,
    "address": "대전광역시 서구 둔산동 1389 변호사회관 508호"
  },
  {
    "name": "법무법인대전합동",
    "lat": 36.3532871598649,
    "lng": 127.389550890491,
    "address": "대전광역시 서구 둔산로 137번길 44 서림빌딩 301호"
  },
  {
    "name": "법무법인대종",
    "lat": 37.5713696938344,
    "lng": 126.974415113084,
    "address": "서울특별시 종로구 새문안로5길 13 (당주동) 303호"
  },
  {
    "name": "법무법인대현",
    "lat": 37.4125753821965,
    "lng": 127.129272900193,
    "address": "경기도 성남시 분당구 야탑동 360-6 메트로빌딩 7층 701호"
  },
  {
    "name": "법무법인덕수",
    "lat": 37.5020858941495,
    "lng": 127.026069579038,
    "address": "서울특별시 강남구 강남대로 442 (역삼동, 서울역삼동우체국) 7층"
  },
  {
    "name": "법무법인덕양",
    "lat": 37.6351835715564,
    "lng": 126.831903897447,
    "address": "경기도 고양시 덕양구 화정동 969-1 새롬프라자 701호"
  },
  {
    "name": "법무법인동명",
    "lat": 37.3116475030053,
    "lng": 126.827778367884,
    "address": "경기도 안산시 단원구 고잔동 707-3 대한법조빌딩206호"
  },
  {
    "name": "법무법인동산",
    "lat": 37.6011659495763,
    "lng": 127.140721305254,
    "address": "경기도 구리시 인창동 264-4 쌍용플래티넘 선스타워 4층 404호"
  },
  {
    "name": "법무법인동일",
    "lat": 37.4931390130546,
    "lng": 127.118864841565,
    "address": "서울특별시 송파구 송파대로 260 (제일오피스텔) 912호, 913호, 914호"
  },
  {
    "name": "법무법인동행",
    "lat": 35.5371601583321,
    "lng": 129.288131096823,
    "address": "울산광역시 남구 옥동 581-2 거화법률빌딩 3, 4층"
  },
  {
    "name": "법무법인동호합동법률사무소",
    "lat": 37.5236560779855,
    "lng": 127.027804619385,
    "address": "서울특별시 강남구 신사동 584 규명빌딩 2층"
  },
  {
    "name": "법무법인두레",
    "lat": 37.4938828727139,
    "lng": 127.01111127982,
    "address": "서울특별시 서초구 법원로 10 (서초동, 정곡빌딩남관) 4층 405"
  },
  {
    "name": "법무법인두현",
    "lat": 37.493344762009,
    "lng": 127.011418211177,
    "address": "서울특별시 서초구 서초대로 271 (서초동, 서초빌딩) 2층"
  },
  {
    "name": "법무법인둔산",
    "lat": 36.3532996321856,
    "lng": 127.389539811866,
    "address": "대전광역시 서구 둔산동 1391 서림빌딩 901호"
  },
  {
    "name": "법무법인디엘에스",
    "lat": 37.4865196117245,
    "lng": 126.893842983447,
    "address": "서울특별시 구로구 구로동 197-33 이앤씨벤처드림타워 3차509호"
  },
  {
    "name": "법무법인디지탈",
    "lat": 37.4536624787309,
    "lng": 127.160332232261,
    "address": "경기도 성남시 수정구 단대동 69-3 태영빌딩"
  },
  {
    "name": "법무법인로비즈",
    "lat": 37.3111348328653,
    "lng": 126.827481503916,
    "address": "경기도 안산시 단원구 고잔동 710중앙법조빌딩503호"
  },
  {
    "name": "법무법인로시스",
    "lat": 37.4419437815494,
    "lng": 126.667320349274,
    "address": "인천광역시 미추홀구 소성로 171 로시스빌딩 201호"
  },
  {
    "name": "법무법인로웰",
    "lat": 37.4423327091788,
    "lng": 126.666315732206,
    "address": "인천광역시 남구 소성로 159 (학익동, 현준솔로몬시티) 3층"
  },
  {
    "name": "법무법인로컴",
    "lat": 35.1495307972263,
    "lng": 126.935916209948,
    "address": "광주광역시 동구 지산동 708-33 로컴빌딩 1층"
  },
  {
    "name": "법무법인명성",
    "lat": 37.6046087305946,
    "lng": 127.155639907562,
    "address": "경기도 남양주시 경춘로 368 101호(가운동 브릭스타워)"
  },
  {
    "name": "법무법인명인",
    "lat": 37.4421453551023,
    "lng": 126.66980064166,
    "address": "인천광역시 남구 학익동 240-1 명인빌딩 101호"
  },
  {
    "name": "법무법인문수법률사무소",
    "lat": 35.5366561135125,
    "lng": 129.287294831639,
    "address": "울산광역시 남구 법대로 86-7 (옥동) 2층(옥동, 명인빌딩)"
  },
  {
    "name": "법무법인미래로",
    "lat": 35.2231412367412,
    "lng": 128.701142516618,
    "address": "경상남도 창원시 사파동 83세영빌딩2층"
  },
  {
    "name": "법무법인민",
    "lat": 37.5004268426083,
    "lng": 127.033983624154,
    "address": "서울특별시 강남구 역삼동 646 현대해상화재보험빌딩14층"
  },
  {
    "name": "법무법인민주",
    "lat": 37.500686855813,
    "lng": 127.01171031136,
    "address": "서울특별시 서초구 서초중앙로 215 (반포동, 홍익대학교강남교육원) 7층"
  },
  {
    "name": "법무법인바른",
    "lat": 37.5068527291058,
    "lng": 127.066250897864,
    "address": "서울특별시 강남구 대치동 1003 메디슨빌딩4층"
  },
  {
    "name": "법무법인백범",
    "lat": 37.4417408904862,
    "lng": 126.666494981418,
    "address": "인천광역시 남구 학익동 252-9 중앙법조빌딩 1층"
  },
  {
    "name": "법무법인백제",
    "lat": 35.8394023155357,
    "lng": 127.119737238434,
    "address": "전라북도 전주시 덕진구 덕진동1가 1433-6"
  },
  {
    "name": "법무법인범어",
    "lat": 35.8618724327175,
    "lng": 128.626174190933,
    "address": "대구광역시 수성구 범어동 33-10, 법무빌딩 2층"
  },
  {
    "name": "법무법인법가",
    "lat": 35.1508087647747,
    "lng": 126.933770682367,
    "address": "광주광역시 동구 지산동 342-12"
  },
  {
    "name": "법무법인법여울",
    "lat": 37.4939463115636,
    "lng": 127.011952834242,
    "address": "서울특별시 서초구 서초대로49길 7 (서초동, 오성빌딩) 101호"
  },
  {
    "name": "법무법인법흥",
    "lat": 37.5669858059331,
    "lng": 126.982247152887,
    "address": "서울특별시 중구 남대문로 109 (다동, 국제빌딩) 국제빌딩 702호"
  },
  {
    "name": "법무법인봄",
    "lat": 37.4935728051632,
    "lng": 127.030306438541,
    "address": "서울특별시 강남구 강남대로 340 (역삼동, 경원빌딩) 11층"
  },
  {
    "name": "법무법인부일",
    "lat": 37.4909375781326,
    "lng": 126.756734004997,
    "address": "경기도 부천시 원미구 상일로 130, 202호 상동, 법조타운"
  },
  {
    "name": "법무법인비앤에스",
    "lat": 37.4985225966954,
    "lng": 127.030920241608,
    "address": "서울특별시 강남구 역삼동 824-21 상경빌딩 12층"
  },
  {
    "name": "법무법인비전",
    "lat": 37.4936816519865,
    "lng": 127.009326846136,
    "address": "서울특별시 서초구 법원로3길 10 (서초동)"
  },
  {
    "name": "법무법인비케이",
    "lat": 37.4936599915248,
    "lng": 127.012626632694,
    "address": "서울특별시 서초구 서초동 1715-10 남촌빌딩 5층"
  },
  {
    "name": "법무법인빛고을종합법률사무소",
    "lat": 35.1508295129888,
    "lng": 126.933472488513,
    "address": "광주광역시 동구 지산동 373-7 2층"
  },
  {
    "name": "법무법인사랑",
    "lat": 37.5155869691926,
    "lng": 127.041590908041,
    "address": "서울특별시 강남구 선릉로 661 (논현동, 석영빌딩) 6층"
  },
  {
    "name": "법무법인사명",
    "lat": 36.8151062201565,
    "lng": 127.160702228608,
    "address": "충청남도 천안시 동남구 신부동 72-36 완전빌딩 1,2,3층"
  },
  {
    "name": "법무법인산지",
    "lat": 37.4930094671548,
    "lng": 127.013418755214,
    "address": "서울특별시 서초구 서초중앙로 125 (서초동, 로이어즈타워) 1층"
  },
  {
    "name": "법무법인삼덕",
    "lat": 35.1910982673087,
    "lng": 129.074347170434,
    "address": "부산광역시 연제구 거제동 1490-3 세헌빌딩 4층"
  },
  {
    "name": "법무법인삼성",
    "lat": 35.3455156896232,
    "lng": 129.038843575029,
    "address": "경상남도 양산시 중앙로 168 (북부동) 2층"
  },
  {
    "name": "법무법인삼송",
    "lat": 37.4935782291686,
    "lng": 127.009163319685,
    "address": "서울특별시 서초구 법원로3길 12 (서초동, 승소빌딩) 1층(서초동, 승소빌딩)"
  },
  {
    "name": "법무법인삼양",
    "lat": 35.1060418946163,
    "lng": 129.036671974537,
    "address": "부산광역시 중구 중앙동4가 89-1(외환은행 5층)"
  },
  {
    "name": "법무법인삼원",
    "lat": 37.3111348328653,
    "lng": 126.827481503916,
    "address": "경기도 안산시 단원구 고잔동 710 중앙법조빌딩 105호"
  },
  {
    "name": "법무법인삼일",
    "lat": 35.8516982002065,
    "lng": 128.527972873099,
    "address": "대구광역시 달서구 용산동 230-21 법조빌딩 309호"
  },
  {
    "name": "법무법인삼흥",
    "lat": 37.5046453972508,
    "lng": 127.04744403408,
    "address": "서울특별시 강남구 역삼동 705-9 삼흥빌딩1301호"
  },
  {
    "name": "법무법인상록",
    "lat": 37.3123172133469,
    "lng": 126.827697197928,
    "address": "경기도 안산시 단원구 고잔동 707 안산법조타운309호"
  },
  {
    "name": "법무법인새길",
    "lat": 37.3858847126327,
    "lng": 127.125930084726,
    "address": "경기도 성남시 분당구 서현동 246-1 금화빌딩 503호"
  },
  {
    "name": "법무법인새대구",
    "lat": 35.8628337228022,
    "lng": 128.626337304276,
    "address": "대구광역시 수성구 범어동 31-9 삼일빌딩 3층"
  },
  {
    "name": "법무법인새빛",
    "lat": 37.4897243342818,
    "lng": 127.030993731212,
    "address": "서울특별시 서초구 서초동 1339-9 강남메트로빌딩 3층"
  },
  {
    "name": "법무법인새서울",
    "lat": 37.4946057748782,
    "lng": 127.017587789799,
    "address": "서울특별시 서초구 서초대로 330 (서초동, 영일빌딩) 5층"
  },
  {
    "name": "법무법인새시대",
    "lat": 37.5226286043191,
    "lng": 126.863769378729,
    "address": "서울특별시 양천구 신월로 385  3층 303호"
  },
  {
    "name": "법무법인새얼",
    "lat": 37.4419637471421,
    "lng": 126.670297630277,
    "address": "인천광역시 남구 학익2동 240-47 선정빌딩1층"
  },
  {
    "name": "법무법인새천년",
    "lat": 34.812021328171,
    "lng": 126.397203338502,
    "address": "전라남도 목포시 용해동 807-1 1,2,3층"
  },
  {
    "name": "법무법인새한양",
    "lat": 37.4941612930536,
    "lng": 127.010000302044,
    "address": "서울특별시 서초구 법원로 15 (서초동, 정곡빌딩) 306호"
  },
  {
    "name": "법무법인샘",
    "lat": 37.3950797716243,
    "lng": 126.964901475462,
    "address": "경기도 안양시 동안구 평촌동 897 칼라힐빌딩229호"
  },
  {
    "name": "법무법인서경",
    "lat": 35.1800377605311,
    "lng": 128.065600958196,
    "address": "경상남도 진주시 진양호로 302 (신안동) 5층"
  },
  {
    "name": "법무법인서면",
    "lat": 35.1584190831649,
    "lng": 129.058189339336,
    "address": "부산광역시 부산진구 부전동 259-13 하성빌딩 5층"
  },
  {
    "name": "법무법인서석",
    "lat": 35.1502636807054,
    "lng": 126.932570193305,
    "address": "광주광역시 동구 지산동 715-2 법조타운 109호"
  },
  {
    "name": "법무법인서울제일",
    "lat": 37.5009805027604,
    "lng": 127.036135772428,
    "address": "서울특별시 강남구 테헤란로 151 (역삼동, 역삼하이츠빌딩) 11층"
  },
  {
    "name": "법무법인서울중앙",
    "lat": 37.4948430547077,
    "lng": 127.013078028425,
    "address": "서울특별시 서초구 서초동 1714-21 웰컴빌딩 102호"
  },
  {
    "name": "법무법인서정",
    "lat": 37.4998101243238,
    "lng": 127.036628730251,
    "address": "서울특별시 강남구 역삼1동 737 강남파이낸스센터빌딩9층"
  },
  {
    "name": "법무법인서해",
    "lat": 37.4425157861445,
    "lng": 126.666025632696,
    "address": "인천광역시 남구 학익동 269-20 인성빌딩2층"
  },
  {
    "name": "법무법인서현",
    "lat": 37.3864616592006,
    "lng": 127.125909820918,
    "address": "경기도 성남시 분당구 서현동 245-2 보람코아빌딩 608호"
  },
  {
    "name": "법무법인서호",
    "lat": 37.5333865983976,
    "lng": 126.968835130754,
    "address": "서울특별시 용산구 한강로2가 석우빌딩 302호"
  },
  {
    "name": "법무법인성남종합",
    "lat": 37.441770416757,
    "lng": 127.135448034609,
    "address": "경기도 성남시 수정구 수진1동 5(신흥빌딩 5,6층)"
  },
  {
    "name": "법무법인성실",
    "lat": 37.4947961008619,
    "lng": 126.88867417793,
    "address": "서울특별시 구로구 구로2동 83-4 광진빌딩503호"
  },
  {
    "name": "법무법인성심종합",
    "lat": 37.5375850072199,
    "lng": 127.086728032378,
    "address": "서울특별시 광진구 아차산로 397 (구의동, 덕운빌딩) 덕운빌딩 2층 "
  },
  {
    "name": "법무법인세경",
    "lat": 37.5697265634017,
    "lng": 126.974903432216,
    "address": "서울특별시 종로구 신문로1가 163"
  },
  {
    "name": "법무법인세영",
    "lat": 35.8662477078491,
    "lng": 128.628424294203,
    "address": "대구광역시 수성구 범어동 1대구엠비시15층"
  },
  {
    "name": "법무법인세인",
    "lat": 37.2740553428035,
    "lng": 127.047644751516,
    "address": "경기도 수원시 영통구 원천동 78-3"
  },
  {
    "name": "법무법인세창",
    "lat": 37.4920207116979,
    "lng": 127.009620980568,
    "address": "서울특별시 서초구 서초대로 254 (서초동, 오퓨런스) 16층"
  },
  {
    "name": "법무법인세헌",
    "lat": 35.1017410680844,
    "lng": 129.03618784786,
    "address": "부산광역시 중구 중앙동6가 국제빌딩 3층"
  },
  {
    "name": "법무법인센트럴",
    "lat": 37.5734061069268,
    "lng": 126.98046068302,
    "address": "서울특별시 종로구 종로5길 68 (수송동, 코리안리재보험빌딩) 502호"
  },
  {
    "name": "법무법인솔로몬",
    "lat": 37.6206885538124,
    "lng": 126.920339531784,
    "address": "서울특별시 은평구 불광동 484-74 골든타워 4층"
  },
  {
    "name": "법무법인송원",
    "lat": 37.5727228633137,
    "lng": 127.016083157911,
    "address": "서울특별시 종로구 종로 344 (숭인동, 대우디오빌) 304호"
  },
  {
    "name": "법무법인송현",
    "lat": 37.4928828253329,
    "lng": 127.012221792519,
    "address": "서울특별시 서초구 서초대로 278 (서초동, 금화빌딩) 7층"
  },
  {
    "name": "법무법인수인",
    "lat": 35.933875819292,
    "lng": 126.957334586164,
    "address": "전라북도 익산시 주현동 202 한양아파트상가 3층"
  },
  {
    "name": "법무법인수인앤한솔",
    "lat": 35.9326321532639,
    "lng": 126.955487521573,
    "address": "전라북도 익산시 주현로 25"
  },
  {
    "name": "법무법인수호",
    "lat": 37.3496904493355,
    "lng": 127.107743693702,
    "address": "경기도 성남시 분당구 구미동 8-2 MD프라자 603호"
  },
  {
    "name": "법무법인시민",
    "lat": 37.3915945202578,
    "lng": 126.951171682345,
    "address": "경기도 안양시 동안구 비산동 1112번지 삼성생명빌딩 2층"
  },
  {
    "name": "법무법인시티",
    "lat": 37.5378485471498,
    "lng": 127.087586102902,
    "address": "서울특별시 광진구 아차산로 405 (구의동, 대성빌딩) 대성빌딩 1층 102호"
  },
  {
    "name": "법무법인시티즌",
    "lat": 37.4421585426607,
    "lng": 126.669780130344,
    "address": "인천광역시 남구 소성로185번길 28 (학익동, 명인빌딩) 102호 502호 503호 504호 505호"
  },
  {
    "name": "법무법인신문고",
    "lat": 37.3496904493355,
    "lng": 127.107743693702,
    "address": "경기도 성남시 분당구 구미동 8-2"
  },
  {
    "name": "법무법인신세기",
    "lat": 37.4929619254433,
    "lng": 127.010428824653,
    "address": "서울특별시 서초구 서초대로 265 (서초동, 대신빌딩) 102호"
  },
  {
    "name": "법무법인신지평",
    "lat": 37.7541828798342,
    "lng": 127.033325452635,
    "address": "경기도 의정부시 가능동 365-30 정욱빌딩 2,4,5층"
  },
  {
    "name": "법무법인신진",
    "lat": 37.5792355715084,
    "lng": 127.04316944302,
    "address": "서울특별시 동대문구 전농동 620-70"
  },
  {
    "name": "법무법인신촌",
    "lat": 37.5553732610206,
    "lng": 126.935365517348,
    "address": "서울특별시 마포구 노고산동 57-12 태영빌딩 3층"
  },
  {
    "name": "법무법인씨티즌",
    "lat": 37.4421453551023,
    "lng": 126.66980064166,
    "address": "인천광역시 남구 학익동 240-1"
  },
  {
    "name": "법무법인아시아",
    "lat": 37.4946751026706,
    "lng": 127.01311723845,
    "address": "서울특별시 서초구 서초중앙로 145 (서초동, 중산빌딩) 3층"
  },
  {
    "name": "법무법인아태",
    "lat": 37.5685579481098,
    "lng": 126.981623651248,
    "address": "서울특별시 중구 다동 10한국관광공사빌딩12층"
  },
  {
    "name": "법무법인안민",
    "lat": 37.4909700866879,
    "lng": 126.89428819762,
    "address": "서울특별시 구로구 구로동 155-75 해맑은미소빌딩 3, 4층"
  },
  {
    "name": "법무법인안양",
    "lat": 37.3955966736413,
    "lng": 126.962791654077,
    "address": "경기도 안양시 동안구 관양동 1597 한양월드빌 207호"
  },
  {
    "name": "법무법인양재",
    "lat": 37.5062216594214,
    "lng": 127.053059944282,
    "address": "서울특별시 강남구 테헤란로 423 (삼성동, 현대타워) 8층"
  },
  {
    "name": "법무법인양헌",
    "lat": 37.5616192365957,
    "lng": 126.974978475659,
    "address": "서울특별시 중구 세종대로 55 (태평로2가, 부영태평빌딩) 25층"
  },
  {
    "name": "법무법인엘에스",
    "lat": 37.6181392896608,
    "lng": 126.715982264532,
    "address": "경기도 김포시 사우동 248-1 부흥빌딩 1층"
  },
  {
    "name": "법무법인여산",
    "lat": 37.441626282573,
    "lng": 126.666782739146,
    "address": "인천광역시 남구 학익동 252-6 학일빌딩 2층"
  },
  {
    "name": "법무법인열린법률",
    "lat": 36.9825393801604,
    "lng": 127.927048095816,
    "address": "충청북도 충주시 계명대로 113 (교현동, 법조빌딩) 3층"
  },
  {
    "name": "법무법인온누리",
    "lat": 37.3108411500542,
    "lng": 126.827456906526,
    "address": "경기도 안산시 단원구 고잔동 710-1 삼영빌딩 102호"
  },
  {
    "name": "법무법인우리들",
    "lat": 35.1908859148994,
    "lng": 129.074654518263,
    "address": "부산광역시 연제구 법원남로 16 협성법조빌딩2층"
  },
  {
    "name": "법무법인우리법률",
    "lat": 37.4981910272996,
    "lng": 126.724288099501,
    "address": "인천광역시 부평구 부평4동 373-26 추인타워 301호"
  },
  {
    "name": "법무법인우리하나로",
    "lat": 36.1188383673264,
    "lng": 128.346527959214,
    "address": "경상북도 구미시 송정동 58  301호"
  },
  {
    "name": "법무법인우면",
    "lat": 37.4847315992014,
    "lng": 127.017803806463,
    "address": "서울특별시 서초구 효령로 304 (서초동, 국제전자센터) 10층"
  },
  {
    "name": "법무법인우암",
    "lat": 37.4941108073961,
    "lng": 126.887167377278,
    "address": "서울특별시 구로구 구로동 82 도진빌딩 2층"
  },
  {
    "name": "법무법인우원",
    "lat": 37.4946057748782,
    "lng": 127.017587789799,
    "address": "서울특별시 서초구 서초대로 330 (서초동, 영일빌딩) 3층"
  },
  {
    "name": "법무법인우인",
    "lat": 37.5718747898899,
    "lng": 126.979481465774,
    "address": "서울특별시 종로구 종로3길 34 (청진동, 삼송빌딩) 801호"
  },
  {
    "name": "법무법인우진",
    "lat": 37.3947694752495,
    "lng": 126.960387529197,
    "address": "경기도 안양시 동안구 관양동 1594-1 효성인텔리안318호"
  },
  {
    "name": "법무법인월드",
    "lat": 37.5376769891393,
    "lng": 127.087474792416,
    "address": "서울특별시 광진구 아차산로 403 (구의동, 경암빌딩) 101호"
  },
  {
    "name": "법무법인위너스",
    "lat": 37.5501896795951,
    "lng": 126.955540593824,
    "address": "서울특별시 마포구 마포대로 180 ,101호 공덕동 마포법조빌딩 "
  },
  {
    "name": "법무법인유일",
    "lat": 37.4953179020966,
    "lng": 127.012925675935,
    "address": "서울특별시 서초구 서초중앙로 153 (서초동) 201호"
  },
  {
    "name": "법무법인유한바른길",
    "lat": 35.1541100548923,
    "lng": 126.848906435047,
    "address": "광주광역시 서구 치평동 1216-4 전문건설회관 1층"
  },
  {
    "name": "법무법인윤",
    "lat": 37.3949728378077,
    "lng": 126.960934801787,
    "address": "경기도 안양시 동안구 관양동 1595의1동우베스티움타워205호"
  },
  {
    "name": "법무법인율가",
    "lat": 37.1587805213263,
    "lng": 127.059003393029,
    "address": "경기도 오산시 궐동 653-1 진성빌딩 3층"
  },
  {
    "name": "법무법인율곡",
    "lat": 37.75189805347,
    "lng": 128.893490324784,
    "address": "강원도 강릉시 임영로 115 (성내동) 3층"
  },
  {
    "name": "법무법인율림",
    "lat": 36.8147445171435,
    "lng": 127.159764202805,
    "address": "충청남도 천안시 동남구 신부동 76-1 여흥빌딩 104호"
  },
  {
    "name": "법무법인율목",
    "lat": 37.3599804278387,
    "lng": 126.935044580716,
    "address": "경기도 군포시 금정동 847-2 동영센트럴타워316"
  },
  {
    "name": "법무법인으뜸",
    "lat": 37.555715873458,
    "lng": 126.936459498392,
    "address": "서울특별시 서대문구 창천동 30-9 광신빌딩 301호"
  },
  {
    "name": "법무법인을지",
    "lat": 37.492550654297,
    "lng": 127.010996194823,
    "address": "서울특별시 서초구 서초대로 266 (서초동, 아스트라) 11층"
  },
  {
    "name": "법무법인의림종합법률사무소",
    "lat": 37.1438507021108,
    "lng": 128.210904544957,
    "address": "충청북도 제천시 의림동 25-2 청솔빌딩 1-3층"
  },
  {
    "name": "법무법인이데아",
    "lat": 37.4933951276654,
    "lng": 127.008164577744,
    "address": "서울특별시 서초구 법원로3길 20-3 (서초동, 은곡빌딩) 1층"
  },
  {
    "name": "법무법인이산",
    "lat": 37.4840255161041,
    "lng": 126.90174085809,
    "address": "서울특별시 구로구 구로3동 1125-1 부호빌딩 302호"
  },
  {
    "name": "법무법인이현",
    "lat": 37.4885454809991,
    "lng": 127.013718729127,
    "address": "서울특별시 서초구 서초대로50길 104 (서초동, 코랜드빌딩) 3층"
  },
  {
    "name": "법무법인인덕",
    "lat": 37.5110441739387,
    "lng": 127.02189534017,
    "address": "서울특별시 강남구 논현동 120 건우빌딩 3층"
  },
  {
    "name": "법무법인인화",
    "lat": 37.4920877278337,
    "lng": 127.01426373297,
    "address": "서울특별시 서초구 서초중앙로 116 (서초동, 성재빌딩) 6층"
  },
  {
    "name": "법무법인일산",
    "lat": 37.6535759315602,
    "lng": 126.775798564914,
    "address": "경기도 고양시 일산동구 장항동 891 일산법조빌딩 3, 4층"
  },
  {
    "name": "법무법인일원",
    "lat": 37.4922541244087,
    "lng": 127.013666260773,
    "address": "서울특별시 서초구 서초중앙로 117 (서초동, 훈민타워) 2층"
  },
  {
    "name": "법무법인일조디지털",
    "lat": 37.4839542345115,
    "lng": 126.89411378672,
    "address": "서울특별시 구로구 구로동 212-30 에이스트윈타워2창 201호"
  },
  {
    "name": "법무법인자우",
    "lat": 37.481535407894,
    "lng": 126.893434985592,
    "address": "서울특별시 구로구 구로동 235-2 에이스하이엔드타워201호"
  },
  {
    "name": "법무법인자유",
    "lat": 37.677993656335,
    "lng": 127.049426444949,
    "address": "서울특별시 도봉구 마들로 764 보성빌딩 2층"
  },
  {
    "name": "법무법인자유로",
    "lat": 37.6530396328228,
    "lng": 126.776112263593,
    "address": "경기도 고양시 일산동구 장항동 891-3 이지로빌딩 5층"
  },
  {
    "name": "법무법인장인",
    "lat": 37.274851299125,
    "lng": 127.049887551007,
    "address": "경기도 수원시 영통구 원천동 83-8 장인빌딩 2, 3층"
  },
  {
    "name": "법무법인재유",
    "lat": 37.505790450051,
    "lng": 127.056153218044,
    "address": "서울특별시 강남구 대치동 892 포스코센터 서관15층"
  },
  {
    "name": "법무법인정",
    "lat": 37.4419010378634,
    "lng": 126.667499759089,
    "address": "인천광역시 남구 학익동 251-5 대흥법조빌딩 101호"
  },
  {
    "name": "법무법인정건",
    "lat": 37.4955255944852,
    "lng": 127.01439488442,
    "address": "서울특별시 서초구 서초중앙로26길 10 (서초동, 청향빌딩) 4층"
  },
  {
    "name": "법무법인정곡",
    "lat": 37.4983307129453,
    "lng": 127.023783348659,
    "address": "서울특별시 서초구 서초동 1316의5부띠크모나코1003호"
  },
  {
    "name": "법무법인정동국제",
    "lat": 37.569490815512,
    "lng": 126.978796613255,
    "address": "서울특별시 종로구 서린동 149청계일레븐빌딩10층"
  },
  {
    "name": "법무법인정민",
    "lat": 37.4916866460467,
    "lng": 127.013081775003,
    "address": "서울특별시 서초구 서초동 1570-13 성도빌딩 7층"
  },
  {
    "name": "법무법인정성",
    "lat": 37.6370657429176,
    "lng": 127.025207005073,
    "address": "서울특별시 강북구 번1동 446-13 704호"
  },
  {
    "name": "법무법인정세",
    "lat": 37.4920207116979,
    "lng": 127.009620980568,
    "address": "서울특별시 서초구 서초대로 254 (서초동, 오퓨런스) 15층"
  },
  {
    "name": "법무법인정암",
    "lat": 37.4944501394429,
    "lng": 127.012102521033,
    "address": "서울특별시 서초구 서초동 1713-1 한승아스트라2빌딩 403,404호"
  },
  {
    "name": "법무법인정우",
    "lat": 35.5327675526812,
    "lng": 129.305947715336,
    "address": "울산광역시 남구 문수로 481 (신정동) 정우빌딩 1층"
  },
  {
    "name": "법무법인정일",
    "lat": 37.5224625251163,
    "lng": 126.862659034835,
    "address": "서울특별시 양천구 신월로 375 (신정동) , 공평빌딩 3층"
  },
  {
    "name": "법무법인지산",
    "lat": 35.1458936907106,
    "lng": 126.846242034234,
    "address": "광주광역시 서구 치평동 1310-22"
  },
  {
    "name": "법무법인지안",
    "lat": 37.5037758841105,
    "lng": 127.024070980788,
    "address": "서울특별시 서초구 서초동 1303-22 교보타워 A동 4층"
  },
  {
    "name": "법무법인창공",
    "lat": 35.8500186444748,
    "lng": 128.526241808912,
    "address": "대구광역시 달서구 장산남로 33(용산동, 용산롯데캐슬그랜드) 롯데캐슬상가 303동 101호,201호,202호"
  },
  {
    "name": "법무법인창조",
    "lat": 37.3830456967989,
    "lng": 127.122045397158,
    "address": "경기도 성남시 분당구 서현동 265-6"
  },
  {
    "name": "법무법인천우",
    "lat": 37.4938303451937,
    "lng": 127.007701448139,
    "address": "서울특별시 서초구 서초대로41길 20 (서초동, 화인빌딩) 3층"
  },
  {
    "name": "법무법인청구",
    "lat": 37.480678953914,
    "lng": 126.952973957665,
    "address": "서울특별시 관악구 관악로 174 (봉천동) 2층"
  },
  {
    "name": "법무법인청남",
    "lat": 36.6128148777081,
    "lng": 127.466879129906,
    "address": "충청북도 청주시 흥덕구 산남동 592신성미소시티빌딩5층"
  },
  {
    "name": "법무법인청남로",
    "lat": 36.352934344765,
    "lng": 127.389026967368,
    "address": "대전광역시 서구 둔산로137번길 35 (둔산동) 2층"
  },
  {
    "name": "법무법인청맥",
    "lat": 37.4963657224988,
    "lng": 127.013378871592,
    "address": "서울특별시 서초구 서초중앙로 164 (서초동, 신한국빌딩) 6층"
  },
  {
    "name": "법무법인청솔",
    "lat": 37.5223771338692,
    "lng": 126.861675697368,
    "address": "서울특별시 양천구 신정4동 1013-6 2,3 층"
  },
  {
    "name": "법무법인청암",
    "lat": 36.8152618726198,
    "lng": 127.159070754514,
    "address": "충청남도 천안시 동남구 신부동 75-1 중앙빌딩1층 104호, 신부동 761 여흥빌딩 104, 403호"
  },
  {
    "name": "법무법인청우",
    "lat": 37.4897243342818,
    "lng": 127.030993731212,
    "address": "서울특별시 서초구 서초동 1339-9 강남메트로빌딩 3층"
  },
  {
    "name": "법무법인청주로",
    "lat": 36.6113812864713,
    "lng": 127.466988860194,
    "address": "충청북도 청주시 흥덕구 산남동 657 엔젤변호사빌딩 7층"
  },
  {
    "name": "법무법인충정",
    "lat": 37.561029845886,
    "lng": 126.974749479621,
    "address": "서울특별시 중구 태평로2가 120 (대경빌딩) 9층"
  },
  {
    "name": "법무법인치악종합법률사무소",
    "lat": 37.331535029525,
    "lng": 127.934507153835,
    "address": "강원도 원주시 무실새골길 12"
  },
  {
    "name": "법무법인케이씨엘",
    "lat": 37.5729095481038,
    "lng": 126.980337085397,
    "address": "서울특별시 종로구 종로5길 58 (수송동, 석탄회관빌딩) 2층"
  },
  {
    "name": "법무법인케이알",
    "lat": 37.4947103651076,
    "lng": 127.018290955985,
    "address": "서울특별시 서초구 서초대로 334 (서초동, 브라운스톤서초) 2층"
  },
  {
    "name": "법무법인케이앤씨",
    "lat": 37.4998101243238,
    "lng": 127.036628730251,
    "address": "서울특별시 강남구 역삼동 737 강남파이낸스센터23층"
  },
  {
    "name": "법무법인코러스",
    "lat": 37.5714335534085,
    "lng": 126.999746324303,
    "address": "서울특별시 종로구 종로 199 (종로4가, 한일빌딩) 1002호"
  },
  {
    "name": "법무법인탐라",
    "lat": 33.492912187342,
    "lng": 126.536073167877,
    "address": "제주특별자치도 제주시 이도2동 1080-1"
  },
  {
    "name": "법무법인태승",
    "lat": 37.4930916309079,
    "lng": 127.013489896733,
    "address": "서울특별시 서초구 서초동 1573-10 로이어즈타워 301호"
  },
  {
    "name": "법무법인태안",
    "lat": 37.5095912559408,
    "lng": 127.059273665858,
    "address": "서울특별시 강남구 삼성동 159-6  도심공항터미널 701호 "
  },
  {
    "name": "법무법인태양",
    "lat": 35.862193307474,
    "lng": 128.627333497027,
    "address": "대구광역시 수성구 범어동 173-1 상영빌딩 2, 3층"
  },
  {
    "name": "법무법인태웅",
    "lat": 37.49321033692,
    "lng": 127.031654424437,
    "address": "서울특별시 강남구 역삼로 114 (역삼동, 현죽빌딩) 13층"
  },
  {
    "name": "법무법인태일",
    "lat": 37.4927735435287,
    "lng": 127.007859084448,
    "address": "서울특별시 서초구 법원로3길 25 (서초동, 태흥빌딩) 5층"
  },
  {
    "name": "법무법인태청",
    "lat": 37.4854982294048,
    "lng": 127.034003657973,
    "address": "서울특별시 강남구 강남대로 246 (도곡동, 다림빌딩) 4층"
  },
  {
    "name": "법무법인태한",
    "lat": 37.4943874125481,
    "lng": 127.013104636127,
    "address": "서울특별시 서초구 서초동 1714-17 칠보빌딩 1층"
  },
  {
    "name": "법무법인태화",
    "lat": 35.5359268438129,
    "lng": 129.287652787437,
    "address": "울산광역시 남구 법대로 98 (옥동) ."
  },
  {
    "name": "법무법인통일",
    "lat": 37.6526192547913,
    "lng": 126.776883538123,
    "address": "경기도 고양시 일산동구 중앙로 1187 (장항동, 흥국생명빌딩) 2층"
  },
  {
    "name": "법무법인포항종합법률사무소",
    "lat": 36.0874975657223,
    "lng": 129.386960659532,
    "address": "경상북도 포항시 북구 장성동 1370-4"
  },
  {
    "name": "법무법인푸른",
    "lat": 37.5670233476166,
    "lng": 126.990608893075,
    "address": "서울특별시 중구 을지로11길 15 (수표동, 동화빌딩) 2층"
  },
  {
    "name": "법무법인프라임",
    "lat": 37.5501140661474,
    "lng": 126.956211256221,
    "address": "서울특별시 마포구 공덕동 105-153 문산빌딩 2, 3 층"
  },
  {
    "name": "법무법인하나로",
    "lat": 37.5330169698043,
    "lng": 127.138782705213,
    "address": "서울특별시 강동구 양재대로 1424 (둔촌동, 하나빌딩) 하나빌딩 201호"
  },
  {
    "name": "법무법인한강",
    "lat": 37.4982005447361,
    "lng": 127.031043373544,
    "address": "서울특별시 강남구 테헤란로8길 8 (역삼동, 홍은.동주빌딩) 4층"
  },
  {
    "name": "법무법인한덕",
    "lat": 37.4934813732291,
    "lng": 127.01213606249,
    "address": "서울특별시 서초구 서초대로 279 (서초동, 국제빌딩) 3층"
  },
  {
    "name": "법무법인한림",
    "lat": 37.5512887316459,
    "lng": 126.848779415926,
    "address": "서울특별시 강서구 화곡로 301 (화곡동, 원풍빌딩) , 5층"
  },
  {
    "name": "법무법인한미",
    "lat": 37.5720788686727,
    "lng": 126.97950099313,
    "address": "서울특별시 종로구 종로3길 38 (청진동, 진학회관) 403호"
  },
  {
    "name": "법무법인한반도",
    "lat": 37.49467987807,
    "lng": 127.013116673878,
    "address": "서울특별시 서초구 서초동 1714-20 중산빌딩 4층"
  },
  {
    "name": "법무법인한백",
    "lat": 37.4924104305263,
    "lng": 127.007964774497,
    "address": "서울특별시 서초구 반포대로 138 (서초동, 양진빌딩) 4층"
  },
  {
    "name": "법무법인한서",
    "lat": 37.4924104305263,
    "lng": 127.007964774497,
    "address": "서울특별시 서초구 반포대로 138 (서초동, 양진빌딩) 5층"
  },
  {
    "name": "법무법인한영",
    "lat": 37.5695507934079,
    "lng": 126.977665328493,
    "address": "서울특별시 종로구 세종로 139 동아미디어센터 18층"
  },
  {
    "name": "법무법인한우리",
    "lat": 37.4924613881217,
    "lng": 127.010739154865,
    "address": "서울특별시 서초구 서초동 1554-4 현대드림시티 3층"
  },
  {
    "name": "법무법인한중",
    "lat": 37.4928727432965,
    "lng": 127.012979871645,
    "address": "서울특별시 서초구 반포대로30길 81 (서초동) 15층"
  },
  {
    "name": "법무법인한터",
    "lat": 37.4924613881217,
    "lng": 127.010739154865,
    "address": "서울특별시 서초구 서초동 1554-4 오피스 빌딩 3층"
  },
  {
    "name": "법무법인해냄",
    "lat": 37.5138886492475,
    "lng": 127.053299510545,
    "address": "서울특별시 강남구 삼성로 608 (삼성동, 우창빌딩) 4층"
  },
  {
    "name": "법무법인해마루",
    "lat": 37.3119765983565,
    "lng": 126.8278043525,
    "address": "경기도 안산시 단원구 고잔동 707-4 한남법조빌딩 102호"
  },
  {
    "name": "법무법인해우",
    "lat": 37.3236681433499,
    "lng": 127.09624522359,
    "address": "경기도 용인시 수지구 풍덕천동 713-5 금호프라자 5층"
  },
  {
    "name": "법무법인현",
    "lat": 37.5182361780659,
    "lng": 127.023705166317,
    "address": "서울특별시 강남구 신사동 538 제이타워13층"
  },
  {
    "name": "법무법인현대",
    "lat": 37.5641952853184,
    "lng": 126.98591834303,
    "address": "서울특별시 중구 명동길 65 (명동1가, 보림빌딩) 8층"
  },
  {
    "name": "법무법인현무",
    "lat": 37.3911340047828,
    "lng": 126.806452934039,
    "address": "경기도 시흥시 하중동 873-1 금천프라자103호, 303호"
  },
  {
    "name": "법무법인혜민",
    "lat": 37.4899185120215,
    "lng": 127.009232074157,
    "address": "서울특별시 서초구 반포대로 110 (서초동, 산우빌딩) 6층"
  },
  {
    "name": "법무법인호남종합법률사무소",
    "lat": 35.8403931987762,
    "lng": 127.120687312645,
    "address": "전라북도 전주시 덕진구 덕진동1가 1407-1 동승빌딩 2층"
  },
  {
    "name": "법무법인호수",
    "lat": 37.6528626063295,
    "lng": 126.776215803705,
    "address": "경기도 고양시 일산동구 장항동 891-4 보림빌딩 4층"
  },
  {
    "name": "법무법인홍윤",
    "lat": 37.4925702697104,
    "lng": 127.007957441372,
    "address": "서울특별시 서초구 서초동 1719-4 양진빌딩 2층"
  },
  {
    "name": "법무법인홍주",
    "lat": 36.5999134018436,
    "lng": 126.650049488995,
    "address": "충청남도 홍성군 홍성읍 월산리 864-1 법전빌딩 2층"
  },
  {
    "name": "법무법인화산",
    "lat": 37.2745312853141,
    "lng": 127.0495879847,
    "address": "경기도 수원시 영통구 원천동 85-3 화산빌딩 102호"
  },
  {
    "name": "법무법인화인",
    "lat": 37.4929702974528,
    "lng": 127.012372428028,
    "address": "서울특별시 서초구 서초대로 280 (서초동, 태양빌딩) 5층"
  },
  {
    "name": "법무법인화평",
    "lat": 37.4931194472693,
    "lng": 127.010132692011,
    "address": "서울특별시 서초구 법원로1길 5 (서초동, 우암빌딩) 4층"
  },
  {
    "name": "법무법인황해",
    "lat": 37.4423041271707,
    "lng": 126.670225171388,
    "address": "인천광역시 남구 학익2동 20-11 반도빌딩 1층"
  },
  {
    "name": "법무법인효원",
    "lat": 37.274021493349,
    "lng": 127.04954796208,
    "address": "경기도 수원시 영통구 원천동 84-22 법조빌딩 2층"
  },
  {
    "name": "삼성합동법률사무소",
    "lat": 37.5704345769169,
    "lng": 126.974535647144,
    "address": "서울특별시 종로구 신문로1가 25 용마빌딩 301호"
  },
  {
    "name": "삼지합동법률사무소",
    "lat": 35.190783108196,
    "lng": 129.074017298432,
    "address": "부산광역시 연제구 거제1동 1491-2 성신프라이언 2층 203호"
  },
  {
    "name": "새부산합동법률사무소",
    "lat": 35.1920803571454,
    "lng": 129.075366494761,
    "address": "부산광역시 연제구 거제동 1486-2 만해포럼빌딩 5층"
  },
  {
    "name": "새한합동법률사무소",
    "lat": 37.5672837587341,
    "lng": 126.978920390965,
    "address": "서울특별시 중구 무교동 32-2 남강빌딩 601호"
  },
  {
    "name": "서도법무법인",
    "lat": 36.8148028641708,
    "lng": 127.159461949835,
    "address": "충청남도 천안시 동남구 신부동 76-11 수석빌딩 1층"
  },
  {
    "name": "서울종합법무법인",
    "lat": 37.4937188583914,
    "lng": 127.014695217773,
    "address": "서울특별시 서초구 서초대로 302 (서초동, 교대역인앤인오피스) 2층"
  },
  {
    "name": "서초법무법인",
    "lat": 37.4942529526837,
    "lng": 127.012547575851,
    "address": "서울특별시 서초구 서초동 1713-4 길도빌딩 505호"
  },
  {
    "name": "선명법무법인",
    "lat": 37.5025952829367,
    "lng": 127.044101954044,
    "address": "서울특별시 강남구 테헤란로 306 (역삼동, 카이트타워) 14층"
  },
  {
    "name": "세방종합법무법인",
    "lat": 37.7380924204844,
    "lng": 127.048117444083,
    "address": "경기도 의정부시 의정부동 141-3 한화생명빌딩 4층"
  },
  {
    "name": "세일합동법률사무소",
    "lat": 37.5125211887102,
    "lng": 127.058819250731,
    "address": "서울특별시 강남구 삼성동 159 무역회관 404호"
  },
  {
    "name": "소공합동법률사무소",
    "lat": 37.5635203138004,
    "lng": 126.978018909686,
    "address": "서울특별시 중구 세종대로18길 16 (북창동, 우성빌딩) 303호 (북창동, 우성빌딩)"
  },
  {
    "name": "신사합동법률사무소",
    "lat": 37.5158616061058,
    "lng": 127.020188280489,
    "address": "서울특별시 강남구 논현동 1 삼주빌딩 6층"
  },
  {
    "name": "영동합동법률사무소",
    "lat": 37.5005127627918,
    "lng": 127.025956280984,
    "address": "서울특별시 서초구 서초동 1306-1 효봉빌딩 4층"
  },
  {
    "name": "우리하나로법률사무소",
    "lat": 36.1186066379723,
    "lng": 128.346540106546,
    "address": "경상북도 구미시 송원동로 7 (송정동) 301호"
  },
  {
    "name": "운산법무법인",
    "lat": 37.4939202595383,
    "lng": 127.01116398085,
    "address": "서울특별시 서초구 서초동 1711 정곡빌딩 남관 102호"
  },
  {
    "name": "일양합동법률사무소",
    "lat": 37.5112278227101,
    "lng": 127.020764102031,
    "address": "서울특별시 서초구 잠원동 37-12 논현빌딩 5층"
  },
  {
    "name": "장안합동법률사무소",
    "lat": 37.5702420124493,
    "lng": 126.993947310533,
    "address": "서울특별시 종로구 종로3가 160 동양빌딩 3층"
  },
  {
    "name": "제일종합법무법인",
    "lat": 37.4517950218376,
    "lng": 127.159279788502,
    "address": "경기도 성남시 수정구 단대동 94-3 신생빌딩 1, 3층"
  },
  {
    "name": "중도법무법인",
    "lat": 36.3532974113895,
    "lng": 127.389861546124,
    "address": "대전광역시 서구 둔산동 1389"
  },
  {
    "name": "중부종합법무법인",
    "lat": 37.4944780154548,
    "lng": 127.010813738023,
    "address": "서울특별시 서초구 서초동 1704-1 정곡빌딩동관 2층"
  },
  {
    "name": "중앙합동법률사무소",
    "lat": 37.5619971160511,
    "lng": 126.97674853552,
    "address": "서울특별시 중구 태평로2가 70-5 해남빌딩 315"
  },
  {
    "name": "창원법무법인",
    "lat": 35.2230593750904,
    "lng": 128.70079848078,
    "address": "경상남도 창원시 사파동 84-1 가야빌딩 302호"
  },
  {
    "name": "천마법무법인",
    "lat": 35.8632474889262,
    "lng": 128.626373324805,
    "address": "대구광역시 수성구 동대구로 367 (범어동) 서현빌딩 1층"
  },
  {
    "name": "테스트법무법인입니다",
    "lat": 37.7179515666008,
    "lng": 128.981472573508,
    "address": "강원도 강릉시 강동면 111"
  },
  {
    "name": "테스트인가공증사무소",
    "lat": 37.5547184628718,
    "lng": 126.895951139646,
    "address": "서울특별시 마포구 마포나루길 429 (망원동 205-5) 테스트"
  },
  {
    "name": "필동합동법률사무소",
    "lat": 37.5615040650431,
    "lng": 126.992427070784,
    "address": "서울특별시 중구 필동1가 39-1 국제빌딩 3층"
  },
  {
    "name": "한글",
    "lat": 35.9326956091964,
    "lng": 126.955510092322,
    "address": "전라북도 익산시 주현동 121-5"
  },
  {
    "name": "한려법무법인",
    "lat": 34.8645580837022,
    "lng": 128.442866989082,
    "address": "경상남도 통영시 용남면 동달리 865 경동빌딩 1층"
  },
  {
    "name": "한복합동법률사무소",
    "lat": 37.5600786131308,
    "lng": 126.976243215499,
    "address": "서울특별시 중구 남대문로2가 한진빌딩 본관 9층 901호"
  },
  {
    "name": "한양합동법률사무소",
    "lat": 37.4848651314049,
    "lng": 127.03911387726,
    "address": "서울특별시 서초구 양재동 1-26 성문빌딩 2층"
  },
  {
    "name": "한일합동법률사무소",
    "lat": 37.563142475133,
    "lng": 126.973393036734,
    "address": "서울특별시 중구 서소문동 50-2 삼령빌딩"
  },
  {
    "name": "해동법무법인",
    "lat": 37.4420695698192,
    "lng": 126.667771347879,
    "address": "인천광역시 남구 학익동 243 평창빌딩 301호"
  },
  {
    "name": "현대합동법률사무소",
    "lat": 37.5646907922149,
    "lng": 126.976582444823,
    "address": "서울특별시 중구 태평로2가 360-1 광학빌딩"
  },
  {
    "name": "홍익법무법인",
    "lat": 37.563014908776,
    "lng": 126.972668699367,
    "address": "서울특별시 중구 서소문로 103 (서소문동, 배재빌딩) 402호 (서소문동, 배재빌딩)"
  }
]