[
  {
    "name": "강원도지방경찰청 강릉경찰서",
    "lat": 37.7686548485123,
    "lng": 128.90680147735,
    "address": "강원도 강릉시 강릉대로 377 (포남동)"
  },
  {
    "name": "강원도지방경찰청 고성경찰서",
    "lat": 38.3765562448967,
    "lng": 128.476884366701,
    "address": "강원도 고성군 간성읍 탑동길 12"
  },
  {
    "name": "강원도지방경찰청 동해경찰서",
    "lat": 37.5247147274563,
    "lng": 129.116808943266,
    "address": "강원도 동해시 천곡로 107 (천곡동)"
  },
  {
    "name": "강원도지방경찰청 삼척경찰서",
    "lat": 37.4458223579322,
    "lng": 129.173946113871,
    "address": "강원도 삼척시 정상로 53 (정상동)"
  },
  {
    "name": "강원도지방경찰청 속초경찰서",
    "lat": 38.1972692879305,
    "lng": 128.568344222329,
    "address": "강원도 속초시 도리원길 93 (노학동)"
  },
  {
    "name": "강원도지방경찰청 양구경찰서",
    "lat": 38.1054760476855,
    "lng": 127.99137399943,
    "address": "강원도 양구군 양구읍 양남로 1"
  },
  {
    "name": "강원도지방경찰청 영월경찰서",
    "lat": 37.1847155707553,
    "lng": 128.468079863885,
    "address": "강원도 영월군 영월읍 단종로 9"
  },
  {
    "name": "강원도지방경찰청 원주경찰서",
    "lat": 37.3482046269222,
    "lng": 127.958297330062,
    "address": "강원도 원주시 봉산로 1 (봉산동)"
  },
  {
    "name": "강원도지방경찰청 인제경찰서",
    "lat": 38.0702547903529,
    "lng": 128.17267201974,
    "address": "강원도 인제군 인제읍 인제로209번길 9"
  },
  {
    "name": "강원도지방경찰청 정선경찰서",
    "lat": 37.3820081057268,
    "lng": 128.661623900584,
    "address": "강원도 정선군 정선읍 비봉로 31"
  },
  {
    "name": "강원도지방경찰청 철원경찰서",
    "lat": 38.1460783943116,
    "lng": 127.311240662533,
    "address": "강원도 철원군 갈말읍 삼부연로 35"
  },
  {
    "name": "강원도지방경찰청 춘천경찰서",
    "lat": 37.87029993883,
    "lng": 127.724263245109,
    "address": "강원도 춘천시 춘천로 61 (효자동)"
  },
  {
    "name": "강원도지방경찰청 태백경찰서",
    "lat": 37.1023545098093,
    "lng": 129.00778759711,
    "address": "강원도 태백시 장성로 26 (장성동)"
  },
  {
    "name": "강원도지방경찰청 평창경찰서",
    "lat": 37.369533948282,
    "lng": 128.389272366345,
    "address": "강원도 평창군 평창읍 군청길 55"
  },
  {
    "name": "강원도지방경찰청 홍천경찰서",
    "lat": 37.7067621095853,
    "lng": 127.908476455127,
    "address": "강원도 홍천군 홍천읍 홍천로 651"
  },
  {
    "name": "강원도지방경찰청 화천경찰서",
    "lat": 38.1063801769865,
    "lng": 127.707742149083,
    "address": "강원도 화천군 화천읍 화천새싹길 33"
  },
  {
    "name": "강원도지방경찰청 횡성경찰서",
    "lat": 37.4920058442975,
    "lng": 127.994749956844,
    "address": "강원도 횡성군 횡성읍 어사매로 78"
  },
  {
    "name": "경기도남부지방경찰청 과천경찰서",
    "lat": 37.4293578081577,
    "lng": 126.989986631805,
    "address": "경기도 과천시 통영로 20 (중앙동)"
  },
  {
    "name": "경기도남부지방경찰청 광명경찰서",
    "lat": 37.4741510608724,
    "lng": 126.86780378638,
    "address": "경기도 광명시 디지털로 5 (철산동)"
  },
  {
    "name": "경기도남부지방경찰청 광주경찰서",
    "lat": 37.4087788325899,
    "lng": 127.239424815033,
    "address": "경기도 광주시 포돌이로 135 (탄벌동)"
  },
  {
    "name": "경기도남부지방경찰청 군포경찰서",
    "lat": 37.3605595354479,
    "lng": 126.937076938103,
    "address": "경기도 군포시 산본로324번길 16 (금정동)"
  },
  {
    "name": "경기도남부지방경찰청 김포경찰서",
    "lat": 37.6375575211545,
    "lng": 126.681092871305,
    "address": "경기도 김포시 태장로795번길 65 (장기동)"
  },
  {
    "name": "경기도남부지방경찰청 부천소사경찰서",
    "lat": 37.4804088893847,
    "lng": 126.772388489112,
    "address": "경기도 부천시 소사구 경인로160번길 70 (송내동)"
  },
  {
    "name": "경기도남부지방경찰청 부천오정경찰서",
    "lat": 37.5145755558044,
    "lng": 126.800458554355,
    "address": "경기도 부천시 오정구 소사로 631 (여월동)"
  },
  {
    "name": "경기도남부지방경찰청 부천원미경찰서",
    "lat": 37.5024628628893,
    "lng": 126.777336671265,
    "address": "경기도 부천시 원미구 조마루로311번길 84 (중동)"
  },
  {
    "name": "경기도남부지방경찰청 분당경찰서",
    "lat": 37.365305160336,
    "lng": 127.105449798689,
    "address": "경기도 성남시 분당구 정자일로 165 (정자동)"
  },
  {
    "name": "경기도남부지방경찰청 성남수정경찰서",
    "lat": 37.4423765356675,
    "lng": 127.12683413551,
    "address": "경기도 성남시 수정구 성남대로 1259 (태평동)"
  },
  {
    "name": "경기도남부지방경찰청 성남중원경찰서",
    "lat": 37.4426637336523,
    "lng": 127.170370787385,
    "address": "경기도 성남시 중원구 금빛로2번길 10 (상대원동)"
  },
  {
    "name": "경기도남부지방경찰청 수원남부경찰서",
    "lat": 37.2721043390665,
    "lng": 127.054492051642,
    "address": "경기도 수원시 영통구 매봉로 52 (매탄동)"
  },
  {
    "name": "경기도남부지방경찰청 수원서부경찰서",
    "lat": 37.2587398262097,
    "lng": 126.97226385575,
    "address": "경기도 수원시 권선구 서부로 1673 (탑동)"
  },
  {
    "name": "경기도남부지방경찰청 수원중부경찰서",
    "lat": 37.2979319496338,
    "lng": 126.99631718583,
    "address": "경기도 수원시 장안구 정자천로 199 (정자동)"
  },
  {
    "name": "경기도남부지방경찰청 시흥경찰서",
    "lat": 37.3767854947077,
    "lng": 126.788108897564,
    "address": "경기도 시흥시 황고개로 513 (장곡동)"
  },
  {
    "name": "경기도남부지방경찰청 안산단원경찰서",
    "lat": 37.3219505315136,
    "lng": 126.829573552814,
    "address": "경기도 안산시 단원구 화랑로 373 (고잔동)"
  },
  {
    "name": "경기도남부지방경찰청 안산상록경찰서",
    "lat": 37.2991958287487,
    "lng": 126.845188207256,
    "address": "경기도 안산시 상록구 차돌배기로 10 (사동)"
  },
  {
    "name": "경기도남부지방경찰청 안성경찰서",
    "lat": 37.0006145499342,
    "lng": 127.249724208893,
    "address": "경기도 안성시 알미산로 140 (도기동)"
  },
  {
    "name": "경기도남부지방경찰청 안양동안경찰서",
    "lat": 37.3912094396239,
    "lng": 126.948865644818,
    "address": "경기도 안양시 동안구 동안로159번길 43 (비산동)"
  },
  {
    "name": "경기도남부지방경찰청 안양만안경찰서",
    "lat": 37.3873338294762,
    "lng": 126.925974279078,
    "address": "경기도 안양시 만안구 냉천로 63 (안양동)"
  },
  {
    "name": "경기도남부지방경찰청 양평경찰서",
    "lat": 37.5169251026736,
    "lng": 127.454997234226,
    "address": "경기도 양평군 옥천면 고읍로 88 (옥천리)"
  },
  {
    "name": "경기도남부지방경찰청 여주경찰서",
    "lat": 37.2932052159127,
    "lng": 127.635529277674,
    "address": "경기도 여주시 세종로 50 (창동)"
  },
  {
    "name": "경기도남부지방경찰청 오산경찰서",
    "lat": 37.1536610250773,
    "lng": 127.082085287014,
    "address": "경기도 오산시 동부대로 596 (부산동)"
  },
  {
    "name": "경기도남부지방경찰청 용인동부경찰서",
    "lat": 37.2415577695372,
    "lng": 127.180431406937,
    "address": "경기도 용인시 처인구 금학로 143 (삼가동)"
  },
  {
    "name": "경기도남부지방경찰청 용인서부경찰서",
    "lat": 37.3096181650731,
    "lng": 127.106125506775,
    "address": "경기도 용인시 기흥구 용구대로2469번길 32 (보정동)"
  },
  {
    "name": "경기도남부지방경찰청 의왕경찰서",
    "lat": 37.3451981829569,
    "lng": 126.974048634012,
    "address": "경기도 의왕시 오봉로 10 (고천동)"
  },
  {
    "name": "경기도남부지방경찰청 이천경찰서",
    "lat": 37.2735973588263,
    "lng": 127.434764212397,
    "address": "경기도 이천시 부악로 32 (중리동)"
  },
  {
    "name": "경기도남부지방경찰청 평택경찰서",
    "lat": 36.9948466801142,
    "lng": 127.090957652395,
    "address": "경기도 평택시 중앙로 67 (비전동)"
  },
  {
    "name": "경기도남부지방경찰청 하남경찰서",
    "lat": 37.5226716618107,
    "lng": 127.224643080043,
    "address": "경기도 하남시 검단로 27 (하산곡동)"
  },
  {
    "name": "경기도남부지방경찰청 화성동탄경찰서",
    "lat": 37.1857284229221,
    "lng": 127.094115172639,
    "address": "경기도 화성시 동탄대로 13길 70"
  },
  {
    "name": "경기도남부지방경찰청 화성서부경찰서",
    "lat": 37.1911432969346,
    "lng": 126.82248256165,
    "address": "경기도 화성시 남양읍 남양로 570"
  },
  {
    "name": "경기도북부지방경찰청 가평경찰서",
    "lat": 37.8255976151984,
    "lng": 127.514949975,
    "address": "경기도 가평군 가평읍 가화로 61"
  },
  {
    "name": "경기도북부지방경찰청 고양경찰서",
    "lat": 37.6287046967336,
    "lng": 126.829841990373,
    "address": "경기도 고양시 덕양구 화중로 12 (화정동)"
  },
  {
    "name": "경기도북부지방경찰청 구리경찰서",
    "lat": 37.5871022601959,
    "lng": 127.129737505139,
    "address": "경기도 구리시 아차산로 359 (교문동)"
  },
  {
    "name": "경기도북부지방경찰청 남양주남부경찰서",
    "lat": 37.6117438266266,
    "lng": 127.172067404298,
    "address": "경기도 남양주시 경춘로 532 (지금동)"
  },
  {
    "name": "경기도북부지방경찰청 남양주북부경찰서",
    "lat": 37.7099955545711,
    "lng": 127.183662101503,
    "address": "경기도 남양주시 진건오남로 1019"
  },
  {
    "name": "경기도북부지방경찰청 동두천경찰서",
    "lat": 37.9102142546342,
    "lng": 127.046170181556,
    "address": "경기도 동두천시 상패로 89 (상패동)"
  },
  {
    "name": "경기도북부지방경찰청 양주경찰서",
    "lat": 37.8408108954838,
    "lng": 127.054895715582,
    "address": "경기도 양주시 평화로 1699 (회정동)"
  },
  {
    "name": "경기도북부지방경찰청 연천경찰서",
    "lat": 38.0982768262524,
    "lng": 127.07372537097,
    "address": "경기도 연천군 연천읍 연천로 239"
  },
  {
    "name": "경기도북부지방경찰청 의정부경찰서",
    "lat": 37.7445395533102,
    "lng": 127.044264862914,
    "address": "경기도 의정부시 호국로 1265 (의정부동)"
  },
  {
    "name": "경기도북부지방경찰청 일산동부경찰서",
    "lat": 37.6650186767295,
    "lng": 126.769549191601,
    "address": "경기도 고양시 일산동구 중앙로 1338 (정발산동)"
  },
  {
    "name": "경기도북부지방경찰청 일산서부경찰서",
    "lat": 37.6799524488717,
    "lng": 126.740435409016,
    "address": "경기도 고양시 일산서구 중앙로 1640 (대화동)"
  },
  {
    "name": "경기도북부지방경찰청 파주경찰서",
    "lat": 37.753714726074,
    "lng": 126.778774788207,
    "address": "경기도 파주시 쇠재로 140 (금릉동)"
  },
  {
    "name": "경기도북부지방경찰청 포천경찰서",
    "lat": 37.8937568237843,
    "lng": 127.205303212856,
    "address": "경기도 포천시 군내면 호국로 1570"
  },
  {
    "name": "경상남도지방경찰청 거제경찰서",
    "lat": 34.898977407491,
    "lng": 128.686705439226,
    "address": "경상남도 거제시 진목1길 2 (옥포동)"
  },
  {
    "name": "경상남도지방경찰청 거창경찰서",
    "lat": 35.6861484603538,
    "lng": 127.909004101545,
    "address": "경상남도 거창군 거창읍 중앙로 97"
  },
  {
    "name": "경상남도지방경찰청 고성경찰서",
    "lat": 34.9759201780233,
    "lng": 128.333663847157,
    "address": "경상남도 고성군 고성읍 중앙로 113"
  },
  {
    "name": "경상남도지방경찰청 김해서부경찰서",
    "lat": 35.190021869884,
    "lng": 128.797287528166,
    "address": "경상남도 김해시 계동로 175 (대청동)"
  },
  {
    "name": "경상남도지방경찰청 김해중부경찰서",
    "lat": 35.226329267661,
    "lng": 128.879511795185,
    "address": "경상남도 김해시 김해대로 2307 (봉황동)"
  },
  {
    "name": "경상남도지방경찰청 남해경찰서",
    "lat": 34.8393904732625,
    "lng": 127.893273965376,
    "address": "경상남도 남해군 남해읍 화전로 89"
  },
  {
    "name": "경상남도지방경찰청 마산동부경찰서",
    "lat": 35.2379491449246,
    "lng": 128.590052679257,
    "address": "경상남도 창원시 마산회원구 합성남17길 56 (합성동)"
  },
  {
    "name": "경상남도지방경찰청 마산중부경찰서",
    "lat": 35.1922083143554,
    "lng": 128.564081784766,
    "address": "경상남도 창원시 마산합포구 3·15대로 147 (중앙동2가)"
  },
  {
    "name": "경상남도지방경찰청 밀양경찰서",
    "lat": 35.468924333043,
    "lng": 128.760624875963,
    "address": "경상남도 밀양시 상남면 밀양대로 1545"
  },
  {
    "name": "경상남도지방경찰청 사천경찰서",
    "lat": 34.9332450654338,
    "lng": 128.080818073701,
    "address": "경상남도 사천시 남일로 37 (동금동)"
  },
  {
    "name": "경상남도지방경찰청 산청경찰서",
    "lat": 35.4164427939169,
    "lng": 127.874442004512,
    "address": "경상남도 산청군 산청읍 중앙로 1"
  },
  {
    "name": "경상남도지방경찰청 양산경찰서",
    "lat": 35.3382060993088,
    "lng": 129.016533725796,
    "address": "경상남도 양산시 물금읍 신주4길 8"
  },
  {
    "name": "경상남도지방경찰청 의령경찰서",
    "lat": 35.3209085915668,
    "lng": 128.261208524745,
    "address": "경상남도 의령군 의령읍 충익로 53"
  },
  {
    "name": "경상남도지방경찰청 진주경찰서",
    "lat": 35.192944167358,
    "lng": 128.081306903114,
    "address": "경상남도 진주시 비봉로24번길 3 (중안동)"
  },
  {
    "name": "경상남도지방경찰청 진해경찰서",
    "lat": 35.1564471673961,
    "lng": 128.703684875169,
    "address": "경상남도 창원시 진해구 진해대로 815 (석동)"
  },
  {
    "name": "경상남도지방경찰청 창녕경찰서",
    "lat": 35.540369591815,
    "lng": 128.500225227156,
    "address": "경상남도 창녕군 창녕읍 종로 38-6"
  },
  {
    "name": "경상남도지방경찰청 창원서부경찰서",
    "lat": 35.2516975777937,
    "lng": 128.636851973138,
    "address": "경상남도 창원시 의창구 우곡로 10 (도계동)"
  },
  {
    "name": "경상남도지방경찰청 통영경찰서",
    "lat": 34.8824825082009,
    "lng": 128.42000234466,
    "address": "경상남도 통영시 광도면 죽림3로 53"
  },
  {
    "name": "경상남도지방경찰청 하동경찰서",
    "lat": 35.0678907872894,
    "lng": 127.749043155037,
    "address": "경상남도 하동군 하동읍 경서대로 139"
  },
  {
    "name": "경상남도지방경찰청 함안경찰서",
    "lat": 35.2791466843672,
    "lng": 128.410910382125,
    "address": "경상남도 함안군 가야읍 가야로 85"
  },
  {
    "name": "경상남도지방경찰청 함양경찰서",
    "lat": 35.5193493877216,
    "lng": 127.725832480955,
    "address": "경상남도 함양군 함양읍 학사루길 12"
  },
  {
    "name": "경상남도지방경찰청 합천경찰서",
    "lat": 35.5638799493131,
    "lng": 128.169677230497,
    "address": "경상남도 합천군 합천읍 황강체육공원로 67"
  },
  {
    "name": "경상북도지방경찰청 경산경찰서",
    "lat": 35.8221266190558,
    "lng": 128.744993163479,
    "address": "경상북도 경산시 원효로 68 (계양동)"
  },
  {
    "name": "경상북도지방경찰청 경주경찰서",
    "lat": 35.8455596779128,
    "lng": 129.211134330166,
    "address": "경상북도 경주시 중앙로 63 (동부동)"
  },
  {
    "name": "경상북도지방경찰청 고령경찰서",
    "lat": 35.7344047633369,
    "lng": 128.271428914609,
    "address": "경상북도 고령군 대가야읍 대가야로 1411"
  },
  {
    "name": "경상북도지방경찰청 구미경찰서",
    "lat": 36.1198158909192,
    "lng": 128.34628231004,
    "address": "경상북도 구미시 송원동로 11-4 (송정동)"
  },
  {
    "name": "경상북도지방경찰청 군위경찰서",
    "lat": 36.2347677936662,
    "lng": 128.566588698018,
    "address": "경상북도 군위군 군위읍 중앙길 74"
  },
  {
    "name": "경상북도지방경찰청 김천경찰서",
    "lat": 36.1202814973932,
    "lng": 128.118257981264,
    "address": "경상북도 김천시 김천로 164 (남산동)"
  },
  {
    "name": "경상북도지방경찰청 문경경찰서",
    "lat": 36.5882109130006,
    "lng": 128.18031632386,
    "address": "경상북도 문경시 매봉로 35 (모전동)"
  },
  {
    "name": "경상북도지방경찰청 봉화경찰서",
    "lat": 36.8888247104573,
    "lng": 128.739895085797,
    "address": "경상북도 봉화군 봉화읍 내성로 73"
  },
  {
    "name": "경상북도지방경찰청 상주경찰서",
    "lat": 36.4157202021958,
    "lng": 128.163446072673,
    "address": "경상북도 상주시 중앙로 230 (성하동)"
  },
  {
    "name": "경상북도지방경찰청 성주경찰서",
    "lat": 35.9211369219147,
    "lng": 128.29229287473,
    "address": "경상북도 성주군 성주읍 성주순환로 251"
  },
  {
    "name": "경상북도지방경찰청 안동경찰서",
    "lat": 36.5617343542818,
    "lng": 128.720133094785,
    "address": "경상북도 안동시 제비원로 103 (당북동)"
  },
  {
    "name": "경상북도지방경찰청 영덕경찰서",
    "lat": 36.3999608104965,
    "lng": 129.370239036497,
    "address": "경상북도 영덕군 영덕읍 남산1길 14"
  },
  {
    "name": "경상북도지방경찰청 영양경찰서",
    "lat": 36.6622368553222,
    "lng": 129.128401397633,
    "address": "경상북도 영양군 영양읍 영양창수로 135"
  },
  {
    "name": "경상북도지방경찰청 영주경찰서",
    "lat": 36.8282526960378,
    "lng": 128.623704218847,
    "address": "경상북도 영주시 광복로 47 (영주동)"
  },
  {
    "name": "경상북도지방경찰청 영천경찰서",
    "lat": 35.9527381754738,
    "lng": 128.90665764347,
    "address": "경상북도 영천시 금호읍 최무선로 1"
  },
  {
    "name": "경상북도지방경찰청 예천경찰서",
    "lat": 36.6567153317695,
    "lng": 128.451469091631,
    "address": "경상북도 예천군 예천읍 군청길 21"
  },
  {
    "name": "경상북도지방경찰청 울릉경찰서",
    "lat": 37.4843091297771,
    "lng": 130.905851668763,
    "address": "경상북도 울릉군 울릉읍 도동2길 62"
  },
  {
    "name": "경상북도지방경찰청 울진경찰서",
    "lat": 36.9847540384847,
    "lng": 129.398669617642,
    "address": "경상북도 울진군 울진읍 울진중앙로 28"
  },
  {
    "name": "경상북도지방경찰청 청도경찰서",
    "lat": 35.6537344001594,
    "lng": 128.750222251971,
    "address": "경상북도 청도군 청도읍 새마을로 1362"
  },
  {
    "name": "경상북도지방경찰청 청송경찰서",
    "lat": 36.437859886289,
    "lng": 129.053113693219,
    "address": "경상북도 청송군 청송읍 월막1길 5-15"
  },
  {
    "name": "경상북도지방경찰청 칠곡경찰서",
    "lat": 36.0092830421519,
    "lng": 128.386371883847,
    "address": "경상북도 칠곡군 약목면 칠곡대로 1050"
  },
  {
    "name": "경상북도지방경찰청 포항남부경찰서",
    "lat": 36.0084333390813,
    "lng": 129.348324793889,
    "address": "경상북도 포항시 남구 연일로 55 (상도동)"
  },
  {
    "name": "경상북도지방경찰청 포항북부경찰서",
    "lat": 36.0428384860487,
    "lng": 129.365214147202,
    "address": "경상북도 포항시 북구 중앙로 331 (덕산동)"
  },
  {
    "name": "광주광역시지방경찰청 광주광산경찰서",
    "lat": 35.152794673652,
    "lng": 126.782766508945,
    "address": "광주광역시 광산구 어등대로 551 (운수동)"
  },
  {
    "name": "광주광역시지방경찰청 광주남부경찰서",
    "lat": 35.1234334185393,
    "lng": 126.921731749821,
    "address": "광주광역시 남구 용대로74번안길 9-5 (봉선동)"
  },
  {
    "name": "광주광역시지방경찰청 광주동부경찰서",
    "lat": 35.1494321199002,
    "lng": 126.920167607447,
    "address": "광주광역시 동구 예술길 33 (대의동)"
  },
  {
    "name": "광주광역시지방경찰청 광주북부경찰서",
    "lat": 35.1862488413277,
    "lng": 126.898741068146,
    "address": "광주광역시 북구 서하로 172 (오치동)"
  },
  {
    "name": "광주광역시지방경찰청 광주서부경찰서",
    "lat": 35.1507655171155,
    "lng": 126.842086932829,
    "address": "광주광역시 서구 상무공원로 71 (치평동)"
  },
  {
    "name": "대구광역시지방경찰청 대구강북경찰서",
    "lat": 35.9434804866511,
    "lng": 128.56513921353,
    "address": "대구광역시 북구 동암로 130 (구암동)"
  },
  {
    "name": "대구광역시지방경찰청 대구남부경찰서",
    "lat": 35.842230661155,
    "lng": 128.583651719064,
    "address": "대구광역시 남구 대명로 249 (대명동)"
  },
  {
    "name": "대구광역시지방경찰청 대구달서경찰서",
    "lat": 35.8304970831378,
    "lng": 128.53353836481,
    "address": "대구광역시 달서구 학산로 55 (월성동)"
  },
  {
    "name": "대구광역시지방경찰청 대구달성경찰서",
    "lat": 35.6912991288239,
    "lng": 128.447405754526,
    "address": "대구광역시 달성군 현풍면 현풍중앙로 16"
  },
  {
    "name": "대구광역시지방경찰청 대구동부경찰서",
    "lat": 35.874293312448,
    "lng": 128.72055613459,
    "address": "대구광역시 동구 반야월북로 209 (각산동)"
  },
  {
    "name": "대구광역시지방경찰청 대구북부경찰서",
    "lat": 35.8864510304765,
    "lng": 128.582647145181,
    "address": "대구광역시 북구 원대로 100 (침산동)"
  },
  {
    "name": "대구광역시지방경찰청 대구서부경찰서",
    "lat": 35.8718283227378,
    "lng": 128.558454561807,
    "address": "대구광역시 서구 국채보상로 249 (평리동)"
  },
  {
    "name": "대구광역시지방경찰청 대구성서경찰서",
    "lat": 35.8532188763936,
    "lng": 128.508774138659,
    "address": "대구광역시 달서구 달구벌대로259길 15 (이곡동)"
  },
  {
    "name": "대구광역시지방경찰청 대구수성경찰서",
    "lat": 35.8582232404981,
    "lng": 128.631625210982,
    "address": "대구광역시 수성구 달구벌대로 2460 (범어동)"
  },
  {
    "name": "대전광역시지방경찰청 대전대덕경찰서",
    "lat": 36.4466980341336,
    "lng": 127.406515407389,
    "address": "대전광역시 대덕구 대덕대로1417번길 11 (문평동)"
  },
  {
    "name": "대전광역시지방경찰청 대전동부경찰서",
    "lat": 36.371185192036,
    "lng": 127.429706090885,
    "address": "대전광역시 대덕구 계족로 670 (법동)"
  },
  {
    "name": "대전광역시지방경찰청 대전둔산경찰서",
    "lat": 36.3583366326291,
    "lng": 127.380230016353,
    "address": "대전광역시 서구 한밭대로 733 (둔산동)"
  },
  {
    "name": "대전광역시지방경찰청 대전서부경찰서",
    "lat": 36.3090447338597,
    "lng": 127.373458846364,
    "address": "대전광역시 서구 복수서로 47 (복수동)"
  },
  {
    "name": "대전광역시지방경찰청 대전유성경찰서",
    "lat": 36.3787828301561,
    "lng": 127.325415976812,
    "address": "대전광역시 유성구 북유성대로 112 (죽동)"
  },
  {
    "name": "대전광역시지방경찰청 대전중부경찰서",
    "lat": 36.3267091472127,
    "lng": 127.422546039516,
    "address": "대전광역시 중구 중앙로 112 (대흥동)"
  },
  {
    "name": "부산광역시지방경찰청 부산강서경찰서",
    "lat": 35.1164924713194,
    "lng": 128.906289987984,
    "address": "부산광역시 강서구 명지국제1로 305 (명지동)"
  },
  {
    "name": "부산광역시지방경찰청 부산금정경찰서",
    "lat": 35.2467654215672,
    "lng": 129.091624913757,
    "address": "부산광역시 금정구 중앙대로 1819 (구서동)"
  },
  {
    "name": "부산광역시지방경찰청 부산기장경찰서",
    "lat": 35.2563971282177,
    "lng": 129.224828030404,
    "address": "부산광역시 기장군 일광면 기장대로 692"
  },
  {
    "name": "부산광역시지방경찰청 부산남부경찰서",
    "lat": 35.1530077327294,
    "lng": 129.089656871378,
    "address": "부산광역시 남구 황령대로319번가길 81 (대연동)"
  },
  {
    "name": "부산광역시지방경찰청 부산동래경찰서",
    "lat": 35.2006637748456,
    "lng": 129.084647541144,
    "address": "부산광역시 동래구 명륜로 70 (수안동)"
  },
  {
    "name": "부산광역시지방경찰청 부산동부경찰서",
    "lat": 35.1297411120516,
    "lng": 129.04897863312,
    "address": "부산광역시 동구 중앙대로 387 (수정동)"
  },
  {
    "name": "부산광역시지방경찰청 부산북부경찰서",
    "lat": 35.2296520615861,
    "lng": 129.008724105255,
    "address": "부산광역시 북구 화명신도시로 63 (화명동)"
  },
  {
    "name": "부산광역시지방경찰청 부산사상경찰서",
    "lat": 35.1543459907384,
    "lng": 128.99139367824,
    "address": "부산광역시 사상구 학감대로 264 (감전동)"
  },
  {
    "name": "부산광역시지방경찰청 부산사하경찰서",
    "lat": 35.0859618481399,
    "lng": 128.978471046232,
    "address": "부산광역시 사하구 을숙도대로 665 (신평동)"
  },
  {
    "name": "부산광역시지방경찰청 부산서부경찰서",
    "lat": 35.1096170813167,
    "lng": 129.013155279418,
    "address": "부산광역시 서구 대영로 16 (서대신동2가)"
  },
  {
    "name": "부산광역시지방경찰청 부산연제경찰서",
    "lat": 35.1822298170439,
    "lng": 129.104511753661,
    "address": "부산광역시 연제구 토곡로 26 (연산동)"
  },
  {
    "name": "부산광역시지방경찰청 부산영도경찰서",
    "lat": 35.0938486192547,
    "lng": 129.036882851844,
    "address": "부산광역시 영도구 태종로 46 (대교동1가)"
  },
  {
    "name": "부산광역시지방경찰청 부산중부경찰서",
    "lat": 35.1074209037553,
    "lng": 129.035924506137,
    "address": "부산광역시 중구 중앙대로 105 (대창동1가)"
  },
  {
    "name": "부산광역시지방경찰청 부산진경찰서",
    "lat": 35.1602917531532,
    "lng": 129.054407373438,
    "address": "부산광역시 부산진구 부전로111번길 6 (부전동)"
  },
  {
    "name": "부산광역시지방경찰청 부산해운대경찰서",
    "lat": 35.1859060261369,
    "lng": 129.121643697974,
    "address": "부산광역시 해운대구 해운대로 129 (재송동)"
  },
  {
    "name": "서울특별시지방경찰청 서울강남경찰서",
    "lat": 37.5093666837584,
    "lng": 127.067099927292,
    "address": "서울특별시 강남구 테헤란로114길 11 (삼성동)"
  },
  {
    "name": "서울특별시지방경찰청 서울강동경찰서",
    "lat": 37.5286775394179,
    "lng": 127.126957376122,
    "address": "서울특별시 강동구 성내로 57 (성내동)"
  },
  {
    "name": "서울특별시지방경찰청 서울강북경찰서",
    "lat": 37.6371702113794,
    "lng": 127.02704154856,
    "address": "서울특별시 강북구 오패산로 406 (번동)"
  },
  {
    "name": "서울특별시지방경찰청 서울관악경찰서",
    "lat": 37.4742339489414,
    "lng": 126.951870098434,
    "address": "서울특별시 관악구 관악로5길 33 (봉천동)"
  },
  {
    "name": "서울특별시지방경찰청 서울광진경찰서",
    "lat": 37.5429114164928,
    "lng": 127.083902174384,
    "address": "서울특별시 광진구 자양로 167 (구의동)"
  },
  {
    "name": "서울특별시지방경찰청 서울금천경찰서",
    "lat": 37.4572513426249,
    "lng": 126.89674718252,
    "address": "서울특별시 금천구 시흥대로73길 50(시흥동)"
  },
  {
    "name": "서울특별시지방경찰청 서울남대문경찰서",
    "lat": 37.5548113505249,
    "lng": 126.973548781722,
    "address": "서울특별시 중구 한강대로 410 (남대문로5가)"
  },
  {
    "name": "서울특별시지방경찰청 서울노원경찰서",
    "lat": 37.6419746781908,
    "lng": 127.070799102184,
    "address": "서울특별시 노원구 노원로 283 (하계동)"
  },
  {
    "name": "서울특별시지방경찰청 서울도봉경찰서",
    "lat": 37.6535367049296,
    "lng": 127.052375754615,
    "address": "서울특별시 도봉구 노해로 403 (창동)"
  },
  {
    "name": "서울특별시지방경찰청 서울동대문경찰서",
    "lat": 37.5851576234405,
    "lng": 127.04579431949,
    "address": "서울특별시 동대문구 약령시로21길 29 (청량리동)"
  },
  {
    "name": "서울특별시지방경찰청 서울동작경찰서",
    "lat": 37.5127958577043,
    "lng": 126.94254949086,
    "address": "서울특별시 동작구 노량진로 148 (노량진동)"
  },
  {
    "name": "서울특별시지방경찰청 서울마포경찰서",
    "lat": 37.5508289853671,
    "lng": 126.954017673791,
    "address": "서울특별시 마포구 마포대로 183 (아현동)"
  },
  {
    "name": "서울특별시지방경찰청 서울방배경찰서",
    "lat": 37.4946896055276,
    "lng": 126.983287781467,
    "address": "서울특별시 서초구 동작대로 204(방배동)"
  },
  {
    "name": "서울특별시지방경찰청 서울서대문경찰서",
    "lat": 37.5650853221302,
    "lng": 126.967074308467,
    "address": "서울특별시 서대문구 통일로 113 (미근동)"
  },
  {
    "name": "서울특별시지방경찰청 서울서부경찰서",
    "lat": 37.602096736456,
    "lng": 126.921546609664,
    "address": "서울특별시 은평구 진흥로58 (녹번동)"
  },
  {
    "name": "서울특별시지방경찰청 서울서초경찰서",
    "lat": 37.4957432310691,
    "lng": 127.005161343516,
    "address": "서울특별시 서초구 반포대로 179 (서초동)"
  },
  {
    "name": "서울특별시지방경찰청 서울성동경찰서",
    "lat": 37.5620026859035,
    "lng": 127.036199405949,
    "address": "서울특별시 성동구 왕십리광장로 9 (행당동)"
  },
  {
    "name": "서울특별시지방경찰청 서울성북경찰서",
    "lat": 37.5897433363624,
    "lng": 127.016218840337,
    "address": "서울특별시 성북구 보문로 170 (삼선동5가)"
  },
  {
    "name": "서울특별시지방경찰청 서울송파경찰서",
    "lat": 37.5018485742256,
    "lng": 127.127601007067,
    "address": "서울특별시 송파구 중대로 221 (가락동)"
  },
  {
    "name": "서울특별시지방경찰청 서울수서경찰서",
    "lat": 37.4935488025263,
    "lng": 127.077143662733,
    "address": "서울특별시 강남구 개포로 617 (개포동)"
  },
  {
    "name": "서울특별시지방경찰청 서울양천경찰서",
    "lat": 37.516676240279,
    "lng": 126.865594446627,
    "address": "서울특별시 양천구 목동동로 99 (신정동)"
  },
  {
    "name": "서울특별시지방경찰청 서울영등포경찰서",
    "lat": 37.5259893677858,
    "lng": 126.901193281879,
    "address": "서울특별시 영등포구 국회대로 608 (당산동3가)"
  },
  {
    "name": "서울특별시지방경찰청 서울용산경찰서",
    "lat": 37.5415376293887,
    "lng": 126.96764793869,
    "address": "서울특별시 용산구 원효로89길 24 (원효로1가)"
  },
  {
    "name": "서울특별시지방경찰청 서울은평경찰서",
    "lat": 37.6278139549484,
    "lng": 126.929155538224,
    "address": "서울특별시 은평구 연서로 365 (불광동)"
  },
  {
    "name": "서울특별시지방경찰청 서울종로경찰서",
    "lat": 37.5758763395858,
    "lng": 126.984551353036,
    "address": "서울특별시 종로구 율곡로 46 (경운동)"
  },
  {
    "name": "서울특별시지방경찰청 서울중랑경찰서",
    "lat": 37.6182542824294,
    "lng": 127.104468079425,
    "address": "서울특별시 중랑구 신내역로3길 40-10 (신내동)"
  },
  {
    "name": "서울특별시지방경찰청 서울중부경찰서",
    "lat": 37.5636917755092,
    "lng": 126.990013840648,
    "address": "서울특별시 중구 수표로 27 (저동2가)"
  },
  {
    "name": "서울특별시지방경찰청 서울혜화경찰서",
    "lat": 37.5717676404547,
    "lng": 126.999273268519,
    "address": "서울특별시 종로구 창경궁로 112-16 (인의동)"
  },
  {
    "name": "세종특별자치시지방경찰청 세종경찰서",
    "lat": 36.5882421866441,
    "lng": 127.294926155633,
    "address": "세종특별자치시 조치원읍 군청로 36"
  },
  {
    "name": "울산광역시지방경찰청 울산남부경찰서",
    "lat": 35.5355402908795,
    "lng": 129.310621129358,
    "address": "울산광역시 남구 삼산로35번길 25 (신정동)"
  },
  {
    "name": "울산광역시지방경찰청 울산동부경찰서",
    "lat": 35.5085444075226,
    "lng": 129.428337526852,
    "address": "울산광역시 동구 진성4길 11 (전하동)"
  },
  {
    "name": "울산광역시지방경찰청 울산북부경찰서",
    "lat": 35.5971463191954,
    "lng": 129.370556764505,
    "address": "울산광역시 북구 화동로 67 (화봉동)"
  },
  {
    "name": "울산광역시지방경찰청 울산울주경찰서",
    "lat": 35.5695601042757,
    "lng": 129.24282605091,
    "address": "울산광역시 울주군 범서읍 점촌6길 6"
  },
  {
    "name": "울산광역시지방경찰청 울산중부경찰서",
    "lat": 35.5698290385162,
    "lng": 129.349216453009,
    "address": "울산광역시 중구 번영로 620 (남외동)"
  },
  {
    "name": "인천광역시지방경찰청 인천강화경찰서",
    "lat": 37.747710026621,
    "lng": 126.486326708757,
    "address": "인천광역시 강화군 강화읍 동문안길 17"
  },
  {
    "name": "인천광역시지방경찰청 인천계양경찰서",
    "lat": 37.5375960906488,
    "lng": 126.735747338651,
    "address": "인천광역시 계양구 계산새로 68 (계산동)"
  },
  {
    "name": "인천광역시지방경찰청 인천남동경찰서",
    "lat": 37.4423907791101,
    "lng": 126.707415922525,
    "address": "인천광역시 남동구 남동대로 668 (구월동)"
  },
  {
    "name": "인천광역시지방경찰청 인천논현경찰서",
    "lat": 37.4040774354874,
    "lng": 126.715038754344,
    "address": "인천광역시 남동구 논현고잔로 239 (논현동)"
  },
  {
    "name": "인천광역시지방경찰청 인천미추홀경찰서",
    "lat": 37.442703889031,
    "lng": 126.653373002239,
    "address": "인천광역시 미추홀구 매소홀로290번길 32 (학익동)"
  },
  {
    "name": "인천광역시지방경찰청 인천부평경찰서",
    "lat": 37.5078526389529,
    "lng": 126.719342962375,
    "address": "인천광역시 부평구 길주로 511 (청천동)"
  },
  {
    "name": "인천광역시지방경찰청 인천삼산경찰서",
    "lat": 37.5110124805355,
    "lng": 126.732240699017,
    "address": "인천광역시 부평구 굴포로 104 (삼산동)"
  },
  {
    "name": "인천광역시지방경찰청 인천서부경찰서",
    "lat": 37.5445648633075,
    "lng": 126.678334395063,
    "address": "인천광역시 서구 탁옥로 77 (심곡동)"
  },
  {
    "name": "인천광역시지방경찰청 인천연수경찰서",
    "lat": 37.4101674595144,
    "lng": 126.681382496566,
    "address": "인천광역시 연수구 원인재로 138 (연수동)"
  },
  {
    "name": "인천광역시지방경찰청 인천중부경찰서",
    "lat": 37.4729438111324,
    "lng": 126.617960878693,
    "address": "인천광역시 중구 제물량로 237 (항동2가)"
  },
  {
    "name": "전라남도지방경찰청 강진경찰서",
    "lat": 34.6423140183008,
    "lng": 126.767922814633,
    "address": "전라남도 강진군 강진읍 탐진로 119"
  },
  {
    "name": "전라남도지방경찰청 고흥경찰서",
    "lat": 34.6112057630457,
    "lng": 127.284168020602,
    "address": "전라남도 고흥군 고흥읍 흥양길 42"
  },
  {
    "name": "전라남도지방경찰청 곡성경찰서",
    "lat": 35.2838522742876,
    "lng": 127.299028910823,
    "address": "전라남도 곡성군 곡성읍 중앙로 161"
  },
  {
    "name": "전라남도지방경찰청 광양경찰서",
    "lat": 34.963643831373,
    "lng": 127.60124905051,
    "address": "전라남도 광양시 광양읍 제철로 16-16"
  },
  {
    "name": "전라남도지방경찰청 구례경찰서",
    "lat": 35.2091267960227,
    "lng": 127.46503905879,
    "address": "전라남도 구례군 구례읍 봉성로 74"
  },
  {
    "name": "전라남도지방경찰청 나주경찰서",
    "lat": 35.0386334841522,
    "lng": 126.720972680407,
    "address": "전라남도 나주시 영산로 5415-22 (성북동)"
  },
  {
    "name": "전라남도지방경찰청 담양경찰서",
    "lat": 35.3099330945696,
    "lng": 126.982452232073,
    "address": "전라남도 담양군 담양읍 무정로 15"
  },
  {
    "name": "전라남도지방경찰청 목포경찰서",
    "lat": 34.7985102087847,
    "lng": 126.397126207827,
    "address": "전라남도 목포시 동명로 124"
  },
  {
    "name": "전라남도지방경찰청 무안경찰서",
    "lat": 34.9871542575553,
    "lng": 126.476867716328,
    "address": "전라남도 무안군 무안읍 무안로 479"
  },
  {
    "name": "전라남도지방경찰청 보성경찰서",
    "lat": 34.7700392495573,
    "lng": 127.081976374434,
    "address": "전라남도 보성군 보성읍 중앙로 88"
  },
  {
    "name": "전라남도지방경찰청 순천경찰서",
    "lat": 34.9717941929914,
    "lng": 127.482018824623,
    "address": "전라남도 순천시 조비길 2 (가곡동)"
  },
  {
    "name": "전라남도지방경찰청 여수경찰서",
    "lat": 34.7410453505195,
    "lng": 127.740506013197,
    "address": "전라남도 여수시 하멜로 2 (고소동)"
  },
  {
    "name": "전라남도지방경찰청 영광경찰서",
    "lat": 35.2781578790678,
    "lng": 126.512482385445,
    "address": "전라남도 영광군 영광읍 중앙로 211"
  },
  {
    "name": "전라남도지방경찰청 영암경찰서",
    "lat": 34.79773447896,
    "lng": 126.698835078553,
    "address": "전라남도 영암군 영암읍 남문로 19"
  },
  {
    "name": "전라남도지방경찰청 완도경찰서",
    "lat": 34.3364397635123,
    "lng": 126.730114280141,
    "address": "전라남도 완도군 완도읍 농공단지길 32"
  },
  {
    "name": "전라남도지방경찰청 장성경찰서",
    "lat": 35.2997110840651,
    "lng": 126.781965597787,
    "address": "전라남도 장성군 장성읍 영천로 164"
  },
  {
    "name": "전라남도지방경찰청 장흥경찰서",
    "lat": 34.6789050466507,
    "lng": 126.897792810928,
    "address": "전라남도 장흥군 장흥읍 읍성로 123"
  },
  {
    "name": "전라남도지방경찰청 진도경찰서",
    "lat": 34.4760128072854,
    "lng": 126.262122049518,
    "address": "전라남도 진도군 진도읍 남산2길 33"
  },
  {
    "name": "전라남도지방경찰청 함평경찰서",
    "lat": 35.0653906673691,
    "lng": 126.514985335344,
    "address": "전라남도 함평군 함평읍 중앙길 220"
  },
  {
    "name": "전라남도지방경찰청 해남경찰서",
    "lat": 34.5657863071367,
    "lng": 126.607262270512,
    "address": "전라남도 해남군 해남읍 영빈로 61"
  },
  {
    "name": "전라남도지방경찰청 화순경찰서",
    "lat": 35.0625067847312,
    "lng": 126.984987397647,
    "address": "전라남도 화순군 화순읍 자치샘로 29"
  },
  {
    "name": "전라북도지방경찰청 고창경찰서",
    "lat": 35.4414339951737,
    "lng": 126.695185466639,
    "address": "전라북도 고창군 고창읍 보릿골로 175"
  },
  {
    "name": "전라북도지방경찰청 군산경찰서",
    "lat": 35.9811967961771,
    "lng": 126.727797998216,
    "address": "전라북도 군산시 구암3.1로 82 (경암동)"
  },
  {
    "name": "전라북도지방경찰청 김제경찰서",
    "lat": 35.7980569722434,
    "lng": 126.896973564977,
    "address": "전라북도 김제시 중앙로 213 (신풍동)"
  },
  {
    "name": "전라북도지방경찰청 남원경찰서",
    "lat": 35.4136484090801,
    "lng": 127.372338822331,
    "address": "전라북도 남원시 교룡로 185 (향교동)"
  },
  {
    "name": "전라북도지방경찰청 무주경찰서",
    "lat": 36.0039107680579,
    "lng": 127.670206327241,
    "address": "전라북도 무주군 무주읍 한풍루로 408"
  },
  {
    "name": "전라북도지방경찰청 부안경찰서",
    "lat": 35.7312958768268,
    "lng": 126.720562946176,
    "address": "전라북도 부안군 행안면 염소로 33"
  },
  {
    "name": "전라북도지방경찰청 순창경찰서",
    "lat": 35.4318926257616,
    "lng": 127.058839446442,
    "address": "전라북도 순창군 구림면 구림로 3-2(임시청사)"
  },
  {
    "name": "전라북도지방경찰청 완주경찰서",
    "lat": 35.9276561126933,
    "lng": 127.166922845556,
    "address": "전라북도 완주군 봉동읍 봉동로 28"
  },
  {
    "name": "전라북도지방경찰청 익산경찰서",
    "lat": 35.9539813379221,
    "lng": 126.939823455217,
    "address": "전라북도 익산시 배산로 165-12 (모현동2가)"
  },
  {
    "name": "전라북도지방경찰청 임실경찰서",
    "lat": 35.6143003331458,
    "lng": 127.287634202782,
    "address": "전라북도 임실군 임실읍 호국로 1702"
  },
  {
    "name": "전라북도지방경찰청 장수경찰서",
    "lat": 35.6472886228034,
    "lng": 127.516318857964,
    "address": "전라북도 장수군 장수읍 신천로 8"
  },
  {
    "name": "전라북도지방경찰청 전주덕진경찰서",
    "lat": 35.8426316985159,
    "lng": 127.092953601166,
    "address": "전라북도 전주시 덕진구 온고을로 299 (팔복동3가)"
  },
  {
    "name": "전라북도지방경찰청 전주완산경찰서",
    "lat": 35.8154100003483,
    "lng": 127.146501121858,
    "address": "전라북도 전주시 완산구 전라감영로 66 (전동)"
  },
  {
    "name": "전라북도지방경찰청 정읍경찰서",
    "lat": 35.5671345963559,
    "lng": 126.857396044647,
    "address": "전라북도 정읍시 중앙1길 157 (장명동)"
  },
  {
    "name": "전라북도지방경찰청 진안경찰서",
    "lat": 35.7914799468883,
    "lng": 127.425906815269,
    "address": "전라북도 진안군 진안읍 우화산길 3"
  },
  {
    "name": "제주특별자치도지방경찰청 서귀포경찰서",
    "lat": 33.2561527307649,
    "lng": 126.50923956244,
    "address": "제주특별자치도 서귀포시 신중로 27 (법환동)"
  },
  {
    "name": "제주특별자치도지방경찰청 제주동부경찰서",
    "lat": 33.5035351846963,
    "lng": 126.535826444474,
    "address": "제주특별자치도 제주시 동광로 66 (이도이동)"
  },
  {
    "name": "제주특별자치도지방경찰청 제주서부경찰서",
    "lat": 33.4734977061282,
    "lng": 126.405378344484,
    "address": "제주특별자치도 제주시 애월읍 애조로 215"
  },
  {
    "name": "충청남도지방경찰청 공주경찰서",
    "lat": 36.4557784492317,
    "lng": 127.109845900325,
    "address": "충청남도 공주시 백제문화로 2148-15 (웅진동)"
  },
  {
    "name": "충청남도지방경찰청 금산경찰서",
    "lat": 36.1039239784185,
    "lng": 127.502881658896,
    "address": "충청남도 금산군 금산읍 인삼로 201"
  },
  {
    "name": "충청남도지방경찰청 논산경찰서",
    "lat": 36.1587430438071,
    "lng": 127.017103409495,
    "address": "충청남도 논산시 강경읍 계백로 159"
  },
  {
    "name": "충청남도지방경찰청 당진경찰서",
    "lat": 36.8938417369137,
    "lng": 126.640737016993,
    "address": "충청남도 당진시 무수동7길 144 (읍내동)"
  },
  {
    "name": "충청남도지방경찰청 보령경찰서",
    "lat": 36.3513011910118,
    "lng": 126.597223223581,
    "address": "충청남도 보령시 대천로 33 (대천동)"
  },
  {
    "name": "충청남도지방경찰청 부여경찰서",
    "lat": 36.2756612011863,
    "lng": 126.902255420167,
    "address": "충청남도 부여군 부여읍 성말로 4"
  },
  {
    "name": "충청남도지방경찰청 서산경찰서",
    "lat": 36.7769001027292,
    "lng": 126.447226304377,
    "address": "충청남도 서산시 안견로 327 (읍내동)"
  },
  {
    "name": "충청남도지방경찰청 서천경찰서",
    "lat": 36.0096357528848,
    "lng": 126.69183837331,
    "address": "충청남도 서천군 장항읍 신창동로 15"
  },
  {
    "name": "충청남도지방경찰청 아산경찰서",
    "lat": 36.7716103908513,
    "lng": 127.023439021886,
    "address": "충청남도 아산시 남부로 370-15 (풍기동)"
  },
  {
    "name": "충청남도지방경찰청 예산경찰서",
    "lat": 36.6802905201503,
    "lng": 126.847670674847,
    "address": "충청남도 예산군 예산읍 사직로 5"
  },
  {
    "name": "충청남도지방경찰청 천안동남경찰서",
    "lat": 36.786846965424,
    "lng": 127.156057249023,
    "address": "충청남도 천안시 동남구 청수6로 73 (청당동)"
  },
  {
    "name": "충청남도지방경찰청 천안서북경찰서",
    "lat": 36.8572747270941,
    "lng": 127.137206809961,
    "address": "충청남도 천안시 서북구 번영로 705 (업성동)"
  },
  {
    "name": "충청남도지방경찰청 청양경찰서",
    "lat": 36.4637172091698,
    "lng": 126.794330518215,
    "address": "충청남도 청양군 청양읍 충절로 1317"
  },
  {
    "name": "충청남도지방경찰청 태안경찰서",
    "lat": 36.7575712640144,
    "lng": 126.288785763422,
    "address": "충청남도 태안군 동백로 112"
  },
  {
    "name": "충청남도지방경찰청 홍성경찰서",
    "lat": 36.5880446666098,
    "lng": 126.657428362339,
    "address": "충청남도 홍성군 홍성읍 충서로 1254"
  },
  {
    "name": "충청북도지방경찰청 괴산경찰서",
    "lat": 36.8103368418396,
    "lng": 127.7921364233,
    "address": "충청북도 괴산군 괴산읍 읍내로11길 26"
  },
  {
    "name": "충청북도지방경찰청 단양경찰서",
    "lat": 36.9853816145285,
    "lng": 128.364873051179,
    "address": "충청북도 단양군 단양읍 중앙1로 3"
  },
  {
    "name": "충청북도지방경찰청 보은경찰서",
    "lat": 36.4822299038541,
    "lng": 127.714973297607,
    "address": "충청북도 보은군 보은읍 장신로 8"
  },
  {
    "name": "충청북도지방경찰청 영동경찰서",
    "lat": 36.1780382544928,
    "lng": 127.775941967975,
    "address": "충청북도 영동군 영동읍 영산로 32"
  },
  {
    "name": "충청북도지방경찰청 옥천경찰서",
    "lat": 36.2989133638541,
    "lng": 127.568661468612,
    "address": "충청북도 옥천군 옥천읍 중앙로 20"
  },
  {
    "name": "충청북도지방경찰청 음성경찰서",
    "lat": 36.9268717215763,
    "lng": 127.689721784612,
    "address": "충청북도 음성군 음성읍 중앙로 26"
  },
  {
    "name": "충청북도지방경찰청 제천경찰서",
    "lat": 37.1341336583696,
    "lng": 128.197955554136,
    "address": "충청북도 제천시 용두대로 27 (하소동)"
  },
  {
    "name": "충청북도지방경찰청 진천경찰서",
    "lat": 36.8559060083211,
    "lng": 127.445129668568,
    "address": "충청북도 진천군 진천읍 중앙동로 68"
  },
  {
    "name": "충청북도지방경찰청 청주상당경찰서",
    "lat": 36.6093714031945,
    "lng": 127.533190437404,
    "address": "충청북도 청주시 상당구 목련로 266 (운동동)"
  },
  {
    "name": "충청북도지방경찰청 청주청원경찰서",
    "lat": 36.651250483063,
    "lng": 127.485676228107,
    "address": "충청북도 청주시 청원구 향군로 60 (우암동)"
  },
  {
    "name": "충청북도지방경찰청 청주흥덕경찰서",
    "lat": 36.6565677318005,
    "lng": 127.45496461858,
    "address": "충청북도 청주시 흥덕구 월명로236번길 15 (봉명동)"
  },
  {
    "name": "충청북도지방경찰청 충주경찰서",
    "lat": 36.9761076718158,
    "lng": 127.935535724144,
    "address": "충청북도 충주시 예성로 218 (교현동)"
  }
]